$GPGGA,203546.000,3832.8295,N,12144.3655,W,1,7,1.11,-0.9,M,-23.2,M,,*4F
$GPRMC,203546.000,A,3832.8295,N,12144.3655,W,0.03,0.00,220514,,,A*72
$GPVTG,0.00,T,,M,0.03,N,0.06,K,A*38
$GPGGA,203547.000,3832.8289,N,12144.3654,W,1,7,1.11,-0.5,M,-23.2,M,,*4E
$GPRMC,203547.000,A,3832.8289,N,12144.3654,W,0.06,0.00,220514,,,A*7A
$GPVTG,0.00,T,,M,0.06,N,0.11,K,A*3B
$GPGGA,203548.000,3832.8285,N,12144.3656,W,1,7,1.11,0.2,M,-23.2,M,,*65
$GPRMC,203548.000,A,3832.8285,N,12144.3656,W,0.04,0.00,220514,,,A*79
$GPVTG,0.00,T,,M,0.04,N,0.07,K,A*3E
$GPGGA,203549.000,3832.8278,N,12144.3658,W,1,7,1.11,2.3,M,-23.2,M,,*6B
$GPGSA,A,3,05,13,08,28,10,19,07,,,,,,1.42,1.11,0.89*0E
$GPGSV,3,1,10,07,63,046,36,08,63,338,39,28,54,236,28,51,42,157,38*7C
$GPGSV,3,2,10,13,37,145,40,19,33,067,31,10,22,230,34,05,21,286,26*79
$GPGSV,3,3,10,11,,,23,26,,,23*7C
$GPRMC,203549.000,A,3832.8278,N,12144.3658,W,0.04,0.00,220514,,,A*74
$GPVTG,0.00,T,,M,0.04,N,0.08,K,A*31
$GPGGA,203550.000,3832.8276,N,12144.3657,W,1,7,1.11,3.4,M,-23.2,M,,*64
$GPGSA,A,3,05,13,08,28,10,19,07,,,,,,1.42,1.11,0.89*0E
$GPGSV,3,1,10,07,63,046,36,08,63,338,39,28,54,236,28,51,42,157,38*7C
$GPGSV,3,2,10,13,37,145,40,19,33,067,31,10,22,230,34,05,21,286,27*78
$GPGSV,3,3,10,11,,,23,26,,,22*7D
$GPRMC,203550.000,A,3832.8276,N,12144.3657,W,0.07,0.00,220514,,,A*7E
$GPVTG,0.00,T,,M,0.07,N,0.14,K,A*3F
$GPGGA,203551.000,3832.8271,N,12144.3662,W,1,6,1.33,5.1,M,-23.2,M,,*66
$GPRMC,203551.000,A,3832.8271,N,12144.3662,W,0.12,0.00,220514,,,A*7A
$GPVTG,0.00,T,,M,0.12,N,0.21,K,A*3D
$GPGGA,203552.000,3832.8269,N,12144.3665,W,1,7,1.11,5.7,M,-23.2,M,,*6C
$GPRMC,203552.000,A,3832.8269,N,12144.3665,W,0.07,0.00,220514,,,A*73
$GPVTG,0.00,T,,M,0.07,N,0.13,K,A*38
$GPGGA,203553.000,3832.8268,N,12144.3666,W,1,7,1.11,6.8,M,-23.2,M,,*63
$GPRMC,203553.000,A,3832.8268,N,12144.3666,W,0.23,261.42,220514,,,A*75
$GPVTG,261.42,T,,M,0.23,N,0.43,K,A*38
$GPGGA,203554.000,3832.8266,N,12144.3666,W,1,6,1.33,7.8,M,-23.2,M,,*6A
$GPRMC,203554.000,A,3832.8266,N,12144.3666,W,0.26,198.64,220514,,,A*78
$GPVTG,198.64,T,,M,0.26,N,0.49,K,A*36
$GPGGA,203555.000,3832.8262,N,12144.3665,W,1,7,1.11,10.7,M,-23.2,M,,*54
$GPGSA,A,3,05,13,08,28,10,19,07,,,,,,1.42,1.11,0.89*0E
$GPGSV,3,1,11,07,63,046,45,08,63,338,21,28,54,236,41,51,42,157,38*7F
$GPGSV,3,2,11,13,37,145,32,19,33,067,41,10,22,230,37,05,21,286,31*7F
$GPGSV,3,3,11,03,,,24,11,,,25,26,,,19*77
$GPRMC,203555.000,A,3832.8262,N,12144.3665,W,0.22,104.51,220514,,,A*79
$GPVTG,104.51,T,,M,0.22,N,0.41,K,A*39
$GPGGA,203556.000,3832.8258,N,12144.3663,W,1,7,1.11,12.8,M,-23.2,M,,*55
$GPGSA,A,3,05,13,08,28,10,19,07,,,,,,1.42,1.11,0.89*0E
$GPGSV,3,1,10,07,63,046,46,08,63,338,21,28,54,236,40,51,42,157,39*7D
$GPGSV,3,2,10,13,37,145,33,19,33,067,42,10,22,230,36,05,21,286,31*7D
$GPGSV,3,3,10,03,,,25,26,,,26*7C
$GPRMC,203556.000,A,3832.8258,N,12144.3663,W,0.15,104.51,220514,,,A*71
$GPVTG,104.51,T,,M,0.15,N,0.29,K,A*33
$GPGGA,203557.000,3832.8255,N,12144.3661,W,1,7,1.11,14.1,M,-23.2,M,,*54
$GPRMC,203557.000,A,3832.8255,N,12144.3661,W,0.11,104.51,220514,,,A*7B
$GPVTG,104.51,T,,M,0.11,N,0.20,K,A*3E
$GPGGA,203558.000,3832.8248,N,12144.3657,W,1,7,1.11,16.9,M,-23.2,M,,*58
$GPRMC,203558.000,A,3832.8248,N,12144.3657,W,0.09,104.51,220514,,,A*74
$GPVTG,104.51,T,,M,0.09,N,0.16,K,A*32
$GPGGA,203559.000,3832.8244,N,12144.3657,W,1,7,1.11,18.4,M,-23.2,M,,*56
$GPRMC,203559.000,A,3832.8244,N,12144.3657,W,0.08,104.51,220514,,,A*78
$GPVTG,104.51,T,,M,0.08,N,0.14,K,A*31
$GPGGA,203600.000,3832.8241,N,12144.3658,W,1,7,1.11,19.1,M,-23.2,M,,*57
$GPRMC,203600.000,A,3832.8241,N,12144.3658,W,0.04,104.51,220514,,,A*71
$GPVTG,104.51,T,,M,0.04,N,0.07,K,A*3F
$GPGGA,203601.000,3832.8238,N,12144.3659,W,1,7,1.11,19.8,M,-23.2,M,,*50
$GPGSA,A,3,05,13,08,28,10,19,07,,,,,,1.42,1.11,0.89*0E
$GPGSV,3,1,10,07,63,046,47,08,63,338,22,28,54,236,43,51,42,157,42*70
$GPGSV,3,2,10,13,37,145,32,19,33,067,44,10,22,230,39,05,21,286,35*71
$GPGSV,3,3,10,03,,,29,26,,,23*75
$GPRMC,203601.000,A,3832.8238,N,12144.3659,W,0.06,104.51,220514,,,A*7D
$GPVTG,104.51,T,,M,0.06,N,0.11,K,A*3A
$GPGGA,203602.000,3832.8236,N,12144.3661,W,1,7,1.11,19.9,M,-23.2,M,,*57
$GPGSA,A,3,05,13,08,28,10,19,07,,,,,,1.42,1.11,0.89*0E
$GPGSV,3,1,10,07,63,046,47,08,63,338,24,28,54,236,44,51,42,157,42*71
$GPGSV,3,2,10,13,37,145,31,19,33,067,44,10,22,230,40,05,21,286,36*7F
$GPGSV,3,3,10,03,,,30,26,,,22*7C
$GPRMC,203602.000,A,3832.8236,N,12144.3661,W,0.04,104.51,220514,,,A*79
$GPVTG,104.51,T,,M,0.04,N,0.07,K,A*3F
$GPGGA,203603.000,3832.8233,N,12144.3662,W,1,7,1.11,20.6,M,-23.2,M,,*55
$GPRMC,203603.000,A,3832.8233,N,12144.3662,W,0.11,104.51,220514,,,A*7A
$GPVTG,104.51,T,,M,0.11,N,0.20,K,A*3E
$GPGGA,203604.000,3832.8233,N,12144.3661,W,1,7,1.11,20.6,M,-23.2,M,,*51
$GPRMC,203604.000,A,3832.8233,N,12144.3661,W,0.14,104.51,220514,,,A*7B
$GPVTG,104.51,T,,M,0.14,N,0.25,K,A*3E
$GPGGA,203605.000,3832.8233,N,12144.3661,W,1,7,1.11,20.7,M,-23.2,M,,*51
$GPRMC,203605.000,A,3832.8233,N,12144.3661,W,0.18,104.51,220514,,,A*76
$GPVTG,104.51,T,,M,0.18,N,0.34,K,A*32
$GPGGA,203606.000,3832.8232,N,12144.3661,W,1,7,1.11,20.7,M,-23.2,M,,*53
$GPRMC,203606.000,A,3832.8232,N,12144.3661,W,0.10,104.51,220514,,,A*7C
$GPVTG,104.51,T,,M,0.10,N,0.18,K,A*34
$GPGGA,203607.000,3832.8232,N,12144.3661,W,1,7,1.11,20.7,M,-23.2,M,,*52
$GPGSA,A,3,05,13,08,28,10,19,07,,,,,,1.42,1.11,0.89*0E
$GPGSV,3,1,10,07,63,046,47,08,63,338,23,28,54,236,45,51,42,157,42*77
$GPGSV,3,2,10,13,37,145,33,19,33,067,44,10,22,230,38,05,21,286,36*72
$GPGSV,3,3,10,03,,,28,26,,,22*75
$GPRMC,203607.000,A,3832.8232,N,12144.3661,W,0.11,104.51,220514,,,A*7C
$GPVTG,104.51,T,,M,0.11,N,0.21,K,A*3F
$GPGGA,203608.000,3832.8231,N,12144.3661,W,1,7,1.11,20.7,M,-23.2,M,,*5E
$GPGSA,A,3,05,13,08,28,10,19,07,,,,,,1.42,1.11,0.89*0E
$GPGSV,3,1,10,07,63,046,47,08,63,338,23,28,54,236,45,51,42,157,42*77
$GPGSV,3,2,10,13,37,145,33,19,33,067,44,10,22,230,38,05,21,286,36*72
$GPGSV,3,3,10,03,,,28,26,,,22*75
$GPRMC,203608.000,A,3832.8231,N,12144.3661,W,0.11,104.51,220514,,,A*70
$GPVTG,104.51,T,,M,0.11,N,0.21,K,A*3F
$GPGGA,203609.000,3832.8231,N,12144.3660,W,1,7,1.11,20.7,M,-23.2,M,,*5E
$GPRMC,203609.000,A,3832.8231,N,12144.3660,W,0.11,104.51,220514,,,A*70
$GPVTG,104.51,T,,M,0.11,N,0.21,K,A*3F
$GPGGA,203610.000,3832.8231,N,12144.3660,W,1,7,1.11,20.7,M,-23.2,M,,*56
$GPRMC,203610.000,A,3832.8231,N,12144.3660,W,0.11,104.51,220514,,,A*78
$GPVTG,104.51,T,,M,0.11,N,0.21,K,A*3F
$GPGGA,203609.000,3832.8231,N,12144.3661,W,1,7,1.11,20.7,M,-23.2,M,,*5F
$GPRMC,203609.000,A,3832.8231,N,12144.3661,W,0.05,104.51,220514,,,A*74
$GPVTG,104.51,T,,M,0.05,N,0.10,K,A*38
$GPGGA,203610.000,3832.8231,N,12144.3661,W,1,7,1.11,20.7,M,-23.2,M,,*57
$GPRMC,203610.000,A,3832.8231,N,12144.3661,W,0.05,104.51,220514,,,A*7C
$GPVTG,104.51,T,,M,0.05,N,0.10,K,A*38
$GPGGA,203611.000,3832.8230,N,12144.3661,W,1,7,1.11,20.7,M,-23.2,M,,*57
$GPGSA,A,3,05,13,08,28,10,19,07,,,,,,1.42,1.11,0.89*0E
$GPGSV,3,1,10,07,63,047,47,08,63,338,23,28,54,236,45,51,42,157,41*75
$GPGSV,3,2,10,13,37,145,35,19,33,067,44,10,22,230,36,05,21,286,36*7A
$GPGSV,3,3,10,03,,,28,26,,,22*75
$GPRMC,203611.000,A,3832.8230,N,12144.3661,W,0.03,104.51,220514,,,A*7A
$GPVTG,104.51,T,,M,0.03,N,0.06,K,A*39
$GPGGA,203612.000,3832.8230,N,12144.3661,W,1,7,1.11,20.7,M,-23.2,M,,*54
$GPGSA,A,3,05,13,08,28,10,19,07,,,,,,1.42,1.11,0.89*0E
$GPGSV,3,1,10,07,63,047,47,08,63,338,24,28,54,236,45,51,42,157,41*72
$GPGSV,3,2,10,13,37,145,35,19,33,067,44,10,22,230,36,05,21,286,36*7A
$GPGSV,3,3,10,03,,,29,26,,,22*74
$GPRMC,203612.000,A,3832.8230,N,12144.3661,W,0.04,104.51,220514,,,A*7E
$GPVTG,104.51,T,,M,0.04,N,0.07,K,A*3F
$GPGGA,203613.000,3832.8230,N,12144.3661,W,1,7,1.11,20.7,M,-23.2,M,,*55
$GPRMC,203613.000,A,3832.8230,N,12144.3661,W,0.07,104.51,220514,,,A*7C
$GPVTG,104.51,T,,M,0.07,N,0.13,K,A*39
$GPGGA,203614.000,3832.8230,N,12144.3661,W,1,7,1.11,20.7,M,-23.2,M,,*52
$GPRMC,203614.000,A,3832.8230,N,12144.3661,W,0.05,104.51,220514,,,A*79
$GPVTG,104.51,T,,M,0.05,N,0.09,K,A*30
$GPGGA,203615.000,3832.8229,N,12144.3661,W,1,7,1.11,20.7,M,-23.2,M,,*5B
$GPRMC,203615.000,A,3832.8229,N,12144.3661,W,0.03,104.51,220514,,,A*76
$GPVTG,104.51,T,,M,0.03,N,0.05,K,A*3A
$GPGGA,203616.000,3832.8229,N,12144.3661,W,1,7,1.11,20.7,M,-23.2,M,,*58
$GPRMC,203616.000,A,3832.8229,N,12144.3661,W,0.08,104.51,220514,,,A*7E
$GPVTG,104.51,T,,M,0.08,N,0.15,K,A*30
$GPGGA,203617.000,3832.8229,N,12144.3661,W,1,7,1.11,20.7,M,-23.2,M,,*59
$GPGSA,A,3,05,13,08,28,10,19,07,,,,,,1.42,1.11,0.89*0E
$GPGSV,3,1,10,07,63,047,47,08,63,338,27,28,54,236,45,51,42,157,40*70
$GPGSV,3,2,10,13,37,145,35,19,33,067,44,10,22,230,30,05,21,286,37*7D
$GPGSV,3,3,10,03,,,29,26,,,22*74
$GPRMC,203617.000,A,3832.8229,N,12144.3661,W,0.08,104.51,220514,,,A*7F
$GPVTG,104.51,T,,M,0.08,N,0.15,K,A*30
$GPGGA,203618.000,3832.8228,N,12144.3661,W,1,7,1.11,20.7,M,-23.2,M,,*57
$GPGSA,A,3,05,13,08,28,10,19,07,,,,,,1.42,1.11,0.89*0E
$GPGSV,3,1,10,07,63,047,47,08,63,338,26,28,54,236,45,51,42,157,40*71
$GPGSV,3,2,10,13,37,145,35,19,33,067,44,10,22,230,31,05,21,286,37*7C
$GPGSV,3,3,10,03,,,30,26,,,22*7C
$GPRMC,203618.000,A,3832.8228,N,12144.3661,W,0.08,104.51,220514,,,A*71
$GPVTG,104.51,T,,M,0.08,N,0.15,K,A*30
$GPGGA,203619.000,3832.8228,N,12144.3661,W,1,7,1.11,20.7,M,-23.2,M,,*56
$GPRMC,203619.000,A,3832.8228,N,12144.3661,W,0.08,104.51,220514,,,A*70
$GPVTG,104.51,T,,M,0.08,N,0.15,K,A*30
$GPGGA,203620.000,3832.8228,N,12144.3661,W,1,7,1.11,20.7,M,-23.2,M,,*5C
$GPRMC,203620.000,A,3832.8228,N,12144.3661,W,0.08,104.51,220514,,,A*7A
$GPVTG,104.51,T,,M,0.08,N,0.15,K,A*30
$GPGGA,203621.000,3832.8227,N,12144.3661,W,1,7,1.11,20.7,M,-23.2,M,,*52
$GPRMC,203621.000,A,3832.8227,N,12144.3661,W,0.08,104.51,220514,,,A*74
$GPVTG,104.51,T,,M,0.08,N,0.15,K,A*30
$GPGGA,203622.000,3832.8227,N,12144.3661,W,1,7,1.11,20.6,M,-23.2,M,,*50
$GPRMC,203622.000,A,3832.8227,N,12144.3661,W,0.08,104.51,220514,,,A*77
$GPVTG,104.51,T,,M,0.08,N,0.15,K,A*30
$GPGGA,203623.000,3832.8227,N,12144.3661,W,1,7,1.11,20.6,M,-23.2,M,,*51
$GPGSA,A,3,05,13,08,28,10,19,07,,,,,,1.42,1.11,0.89*0E
$GPGSV,3,1,10,07,63,047,47,08,63,338,27,28,54,236,45,51,42,157,41*71
$GPGSV,3,2,10,13,37,145,34,19,33,066,44,10,22,230,28,05,21,286,37*74
$GPGSV,3,3,10,03,,,32,26,,,22*7E
$GPRMC,203623.000,A,3832.8227,N,12144.3661,W,0.08,104.51,220514,,,A*76
$GPVTG,104.51,T,,M,0.08,N,0.15,K,A*30
$GPGGA,203624.000,3832.8227,N,12144.3661,W,1,7,1.11,20.6,M,-23.2,M,,*56
$GPGSA,A,3,05,13,08,28,10,19,07,,,,,,1.42,1.11,0.89*0E
$GPGSV,3,1,10,07,63,047,47,08,63,338,26,28,54,236,45,51,42,157,41*70
$GPGSV,3,2,10,13,37,145,34,19,33,066,44,10,22,230,29,05,21,286,37*75
$GPGSV,3,3,10,03,,,32,26,,,22*7E
$GPRMC,203624.000,A,3832.8227,N,12144.3661,W,0.00,104.51,220514,,,A*79
$GPVTG,104.51,T,,M,0.00,N,0.01,K,A*3D
$GPGGA,203625.000,3832.8227,N,12144.3661,W,1,7,1.11,20.6,M,-23.2,M,,*57
$GPRMC,203625.000,A,3832.8227,N,12144.3661,W,0.01,104.51,220514,,,A*79
$GPVTG,104.51,T,,M,0.01,N,0.02,K,A*3F
$GPGGA,203626.000,3832.8227,N,12144.3661,W,1,7,1.15,20.6,M,-23.2,M,,*50
$GPRMC,203626.000,A,3832.8227,N,12144.3661,W,0.00,104.51,220514,,,A*7B
$GPVTG,104.51,T,,M,0.00,N,0.01,K,A*3D
$GPGGA,203627.000,3832.8227,N,12144.3661,W,1,8,1.04,20.6,M,-23.2,M,,*5E
$GPRMC,203627.000,A,3832.8227,N,12144.3661,W,0.01,104.51,220514,,,A*7B
$GPVTG,104.51,T,,M,0.01,N,0.01,K,A*3C
$GPGGA,203628.000,3832.8227,N,12144.3661,W,1,8,1.04,20.6,M,-23.2,M,,*51
$GPRMC,203628.000,A,3832.8227,N,12144.3661,W,0.01,104.51,220514,,,A*74
$GPVTG,104.51,T,,M,0.01,N,0.01,K,A*3C
$GPGGA,203629.000,3832.8227,N,12144.3661,W,1,8,1.04,20.6,M,-23.2,M,,*50
$GPGSA,A,3,05,03,13,08,28,10,19,07,,,,,2.03,1.04,1.74*0C
$GPGSV,3,1,10,07,63,047,47,08,63,338,24,28,54,236,46,51,42,157,41*71
$GPGSV,3,2,10,13,37,145,34,19,33,066,44,03,28,052,32,10,22,230,32*7E
$GPGSV,3,3,10,05,21,286,37,26,,,22*42
$GPRMC,203629.000,A,3832.8227,N,12144.3661,W,0.00,104.51,220514,,,A*74
$GPVTG,104.51,T,,M,0.00,N,0.01,K,A*3D
$GPGGA,203630.000,3832.8227,N,12144.3661,W,1,8,1.04,20.6,M,-23.2,M,,*58
$GPGSA,A,3,05,03,13,08,28,10,19,07,,,,,2.03,1.04,1.74*0C
$GPGSV,3,1,10,07,63,047,47,08,63,338,23,28,54,236,46,51,42,157,41*76
$GPGSV,3,2,10,13,37,145,34,19,33,066,44,03,28,052,32,10,22,230,31*7D
$GPGSV,3,3,10,05,21,286,37,26,,,22*42
$GPRMC,203630.000,A,3832.8227,N,12144.3661,W,0.01,104.51,220514,,,A*7D
$GPVTG,104.51,T,,M,0.01,N,0.01,K,A*3C
$GPGGA,203631.000,3832.8227,N,12144.3661,W,1,8,1.04,20.6,M,-23.2,M,,*59
$GPRMC,203631.000,A,3832.8227,N,12144.3661,W,0.00,104.51,220514,,,A*7D
$GPVTG,104.51,T,,M,0.00,N,0.00,K,A*3C
$GPGGA,203632.000,3832.8227,N,12144.3661,W,1,8,1.04,20.5,M,-23.2,M,,*59
$GPRMC,203632.000,A,3832.8227,N,12144.3661,W,0.00,104.51,220514,,,A*7E
$GPVTG,104.51,T,,M,0.00,N,0.00,K,A*3C
$GPGGA,203633.000,3832.8227,N,12144.3661,W,1,8,1.04,20.5,M,-23.2,M,,*58
$GPRMC,203633.000,A,3832.8227,N,12144.3661,W,0.00,104.51,220514,,,A*7F
$GPVTG,104.51,T,,M,0.00,N,0.01,K,A*3D
$GPGGA,203634.000,3832.8227,N,12144.3661,W,1,8,1.04,20.5,M,-23.2,M,,*5F
$GPRMC,203634.000,A,3832.8227,N,12144.3661,W,0.00,104.51,220514,,,A*78
$GPVTG,104.51,T,,M,0.00,N,0.01,K,A*3D
$GPGGA,203635.000,3832.8227,N,12144.3661,W,1,8,1.04,20.5,M,-23.2,M,,*5E
$GPGSA,A,3,05,03,13,08,28,10,19,07,,,,,2.03,1.04,1.74*0C
$GPGSV,3,1,10,07,63,047,47,08,63,338,25,28,54,237,46,51,42,157,41*71
$GPGSV,3,2,10,13,37,145,33,19,33,066,44,03,28,052,32,10,22,230,31*7A
$GPGSV,3,3,10,05,21,286,37,26,,,24*44
$GPRMC,203635.000,A,3832.8227,N,12144.3661,W,0.01,104.51,220514,,,A*78
$GPVTG,104.51,T,,M,0.01,N,0.01,K,A*3C
$GPGGA,203636.000,3832.8227,N,12144.3661,W,1,8,1.04,20.5,M,-23.2,M,,*5D
$GPGSA,A,3,05,03,13,08,28,10,19,07,,,,,2.03,1.04,1.74*0C
$GPGSV,3,1,10,07,63,047,47,08,63,338,26,28,54,237,46,51,42,157,41*72
$GPGSV,3,2,10,13,37,145,32,19,33,066,44,03,28,052,32,10,22,230,31*7B
$GPGSV,3,3,10,05,21,286,37,26,,,24*44
$GPRMC,203636.000,A,3832.8227,N,12144.3661,W,0.00,104.51,220514,,,A*7A
$GPVTG,104.51,T,,M,0.00,N,0.01,K,A*3D
$GPGGA,203637.000,3832.8227,N,12144.3662,W,1,8,1.04,20.5,M,-23.2,M,,*5F
$GPRMC,203637.000,A,3832.8227,N,12144.3662,W,0.01,104.51,220514,,,A*79
$GPVTG,104.51,T,,M,0.01,N,0.01,K,A*3C
$GPGGA,203638.000,3832.8227,N,12144.3662,W,1,8,1.04,20.5,M,-23.2,M,,*50
$GPRMC,203638.000,A,3832.8227,N,12144.3662,W,0.00,104.51,220514,,,A*77
$GPVTG,104.51,T,,M,0.00,N,0.01,K,A*3D
$GPGGA,203639.000,3832.8227,N,12144.3662,W,1,8,1.04,20.5,M,-23.2,M,,*51
$GPRMC,203639.000,A,3832.8227,N,12144.3662,W,0.00,104.51,220514,,,A*76
$GPVTG,104.51,T,,M,0.00,N,0.01,K,A*3D
$GPGGA,203640.000,3832.8227,N,12144.3662,W,1,8,1.04,20.5,M,-23.2,M,,*5F
$GPRMC,203640.000,A,3832.8227,N,12144.3662,W,0.00,104.51,220514,,,A*78
$GPVTG,104.51,T,,M,0.00,N,0.00,K,A*3C
$GPGGA,203641.000,3832.8227,N,12144.3662,W,1,8,1.04,20.5,M,-23.2,M,,*5E
$GPGSA,A,3,05,03,13,08,28,10,19,07,,,,,2.03,1.04,1.74*0C
$GPGSV,3,1,10,07,63,047,47,08,63,338,20,28,54,237,47,51,42,157,42*76
$GPGSV,3,2,10,13,37,145,30,19,33,066,44,03,28,052,33,10,22,230,30*79
$GPGSV,3,3,10,05,21,286,37,26,,,24*44
$GPRMC,203641.000,A,3832.8227,N,12144.3662,W,0.01,104.51,220514,,,A*78
$GPVTG,104.51,T,,M,0.01,N,0.01,K,A*3C
$GPGGA,203642.000,3832.8227,N,12144.3662,W,1,7,1.14,20.5,M,-23.2,M,,*53
$GPGSA,A,3,05,03,13,08,28,19,07,,,,,,2.23,1.14,1.91*05
$GPGSV,3,1,10,07,63,048,46,08,63,338,21,28,54,237,46,51,42,157,40*7A
$GPGSV,3,2,10,13,37,145,30,19,33,066,44,03,28,052,34,10,22,230,28*77
$GPGSV,3,3,10,05,21,286,37,26,,,24*44
$GPRMC,203642.000,A,3832.8227,N,12144.3662,W,0.01,104.51,220514,,,A*7B
$GPVTG,104.51,T,,M,0.01,N,0.01,K,A*3C
$GPGGA,203643.000,3832.8227,N,12144.3662,W,1,8,1.04,20.5,M,-23.2,M,,*5C
$GPRMC,203643.000,A,3832.8227,N,12144.3662,W,0.00,104.51,220514,,,A*7B
$GPVTG,104.51,T,,M,0.00,N,0.01,K,A*3D
$GPGGA,203644.000,3832.8227,N,12144.3662,W,1,8,1.04,20.4,M,-23.2,M,,*5A
$GPRMC,203644.000,A,3832.8227,N,12144.3662,W,0.01,104.51,220514,,,A*7D
$GPVTG,104.51,T,,M,0.01,N,0.03,K,A*3E
$GPGGA,203645.000,3832.8227,N,12144.3662,W,1,8,1.04,20.4,M,-23.2,M,,*5B
$GPRMC,203645.000,A,3832.8227,N,12144.3662,W,0.02,104.51,220514,,,A*7F
$GPVTG,104.51,T,,M,0.02,N,0.03,K,A*3D
$GPGGA,203646.000,3832.8227,N,12144.3662,W,1,8,1.04,20.4,M,-23.2,M,,*58
$GPRMC,203646.000,A,3832.8227,N,12144.3662,W,0.01,104.51,220514,,,A*7F
$GPVTG,104.51,T,,M,0.01,N,0.03,K,A*3E
$GPGGA,203647.000,3832.8227,N,12144.3662,W,1,8,1.04,20.4,M,-23.2,M,,*59
$GPGSA,A,3,05,03,13,08,28,10,19,07,,,,,2.03,1.04,1.74*0C
$GPGSV,3,1,10,08,64,339,36,07,63,048,31,28,54,237,37,51,42,157,35*7E
$GPGSV,3,2,10,13,37,145,37,19,33,066,28,03,28,052,27,10,22,229,43*7D
$GPGSV,3,3,10,05,21,286,30,26,,,19*4D
$GPRMC,203647.000,A,3832.8227,N,12144.3662,W,0.01,104.51,220514,,,A*7E
$GPVTG,104.51,T,,M,0.01,N,0.01,K,A*3C
$GPGGA,203648.000,3832.8227,N,12144.3662,W,1,8,1.04,20.4,M,-23.2,M,,*56
$GPGSA,A,3,05,03,13,08,28,10,19,07,,,,,2.02,1.04,1.74*0D
$GPGSV,3,1,10,08,64,339,35,07,63,048,31,28,54,237,37,51,42,157,33*7B
$GPGSV,3,2,10,13,36,145,37,19,33,066,28,03,28,052,25,10,22,229,41*7C
$GPGSV,3,3,10,05,21,286,29,26,,,18*44
$GPRMC,203648.000,A,3832.8227,N,12144.3662,W,0.01,104.51,220514,,,A*71
$GPVTG,104.51,T,,M,0.01,N,0.02,K,A*3F
$GPGGA,203649.000,3832.8227,N,12144.3662,W,1,8,1.03,20.4,M,-23.2,M,,*50
$GPRMC,203649.000,A,3832.8227,N,12144.3662,W,0.00,104.51,220514,,,A*71
$GPVTG,104.51,T,,M,0.00,N,0.01,K,A*3D
$GPGGA,203650.000,3832.8227,N,12144.3662,W,1,8,1.03,20.4,M,-23.2,M,,*58
$GPRMC,203650.000,A,3832.8227,N,12144.3662,W,0.01,104.51,220514,,,A*78
$GPVTG,104.51,T,,M,0.01,N,0.01,K,A*3C
$GPGGA,203651.000,3832.8227,N,12144.3662,W,1,8,1.03,20.4,M,-23.2,M,,*59
$GPRMC,203651.000,A,3832.8227,N,12144.3662,W,0.00,104.51,220514,,,A*78
$GPVTG,104.51,T,,M,0.00,N,0.01,K,A*3D
$GPGGA,203652.000,3832.8227,N,12144.3662,W,1,8,1.03,20.4,M,-23.2,M,,*5A
$GPRMC,203652.000,A,3832.8227,N,12144.3662,W,0.00,104.51,220514,,,A*7B
$GPVTG,104.51,T,,M,0.00,N,0.01,K,A*3D
$GPGGA,203653.000,3832.8227,N,12144.3662,W,1,8,1.03,20.4,M,-23.2,M,,*5B
$GPGSA,A,3,05,03,13,08,28,10,19,07,,,,,1.35,1.03,0.87*00
$GPGSV,3,1,11,08,64,339,21,07,63,048,23,28,54,237,30,51,42,157,31*79
$GPGSV,3,2,11,13,36,145,25,19,33,066,18,03,28,052,18,10,22,229,25*71
$GPGSV,3,3,11,05,21,286,27,17,01,189,,26,,,17*73
$GPRMC,203653.000,A,3832.8227,N,12144.3662,W,0.00,104.51,220514,,,A*7A
$GPVTG,104.51,T,,M,0.00,N,0.01,K,A*3D
$GPGGA,203654.000,3832.8227,N,12144.3663,W,1,8,1.03,20.4,M,-23.2,M,,*5D
$GPGSA,A,3,05,03,13,08,28,10,19,07,,,,,1.35,1.03,0.87*00
$GPGSV,3,1,11,08,64,339,22,07,63,048,22,28,54,237,32,51,42,157,31*79
$GPGSV,3,2,11,13,36,145,27,19,33,066,19,03,28,052,18,10,22,229,25*72
$GPGSV,3,3,11,05,21,286,25,17,01,189,,26,,,17*71
$GPRMC,203654.000,A,3832.8227,N,12144.3663,W,0.00,104.51,220514,,,A*7C
$GPVTG,104.51,T,,M,0.00,N,0.00,K,A*3C
$GPGGA,203655.000,3832.8227,N,12144.3663,W,1,8,1.03,20.4,M,-23.2,M,,*5C
$GPRMC,203655.000,A,3832.8227,N,12144.3663,W,0.08,104.51,220514,,,A*75
$GPVTG,104.51,T,,M,0.08,N,0.16,K,A*33
$GPGGA,203656.000,3832.8227,N,12144.3663,W,1,8,1.03,20.4,M,-23.2,M,,*5F
$GPRMC,203656.000,A,3832.8227,N,12144.3663,W,0.23,288.41,220514,,,A*79
$GPVTG,288.41,T,,M,0.23,N,0.43,K,A*3C
$GPGGA,203657.000,3832.8228,N,12144.3664,W,1,8,1.04,20.4,M,-23.2,M,,*51
$GPRMC,203657.000,A,3832.8228,N,12144.3664,W,0.44,295.64,220514,,,A*7A
$GPVTG,295.64,T,,M,0.44,N,0.81,K,A*38
$GPGGA,203658.000,3832.8229,N,12144.3666,W,1,8,1.04,20.4,M,-23.2,M,,*5D
$GPRMC,203658.000,A,3832.8229,N,12144.3666,W,0.63,299.80,220514,,,A*75
$GPVTG,299.80,T,,M,0.63,N,1.17,K,A*35
$GPGGA,203659.000,3832.8234,N,12144.3673,W,1,7,1.27,20.5,M,-23.2,M,,*5B
$GPGSA,A,3,03,13,08,28,10,19,07,,,,,,1.56,1.27,0.90*00
$GPGSV,3,1,11,08,64,339,25,07,63,048,24,28,54,237,35,51,42,157,38*76
$GPGSV,3,2,11,13,36,145,38,19,33,066,21,03,28,052,20,10,22,229,28*71
$GPGSV,3,3,11,05,21,286,,17,01,189,,26,,,17*76
$GPRMC,203659.000,A,3832.8234,N,12144.3673,W,0.69,300.96,220514,,,A*70
$GPVTG,300.96,T,,M,0.69,N,1.28,K,A*35
$GPGGA,203700.000,3832.8234,N,12144.3679,W,1,8,1.03,20.5,M,-23.2,M,,*55
$GPGSA,A,3,05,03,13,08,28,10,19,07,,,,,1.35,1.03,0.87*00
$GPGSV,3,1,11,08,64,339,26,07,63,048,24,28,54,237,35,51,42,157,36*7B
$GPGSV,3,2,11,13,36,145,38,19,33,066,21,03,28,052,20,10,22,229,29*70
$GPGSV,3,3,11,05,21,286,21,17,01,189,,26,,,18*7A
$GPRMC,203700.000,A,3832.8234,N,12144.3679,W,0.74,299.11,220514,,,A*75
$GPVTG,299.11,T,,M,0.74,N,1.36,K,A*38
$GPGGA,203701.000,3832.8236,N,12144.3686,W,1,8,1.03,20.5,M,-23.2,M,,*56
$GPRMC,203701.000,A,3832.8236,N,12144.3686,W,0.78,296.90,220514,,,A*7C
$GPVTG,296.90,T,,M,0.78,N,1.45,K,A*36
$GPGGA,203702.000,3832.8237,N,12144.3691,W,1,8,1.03,20.5,M,-23.2,M,,*52
$GPRMC,203702.000,A,3832.8237,N,12144.3691,W,0.79,294.43,220514,,,A*75
$GPVTG,294.43,T,,M,0.79,N,1.46,K,A*38
$GPGGA,203703.000,3832.8235,N,12144.3695,W,1,8,1.03,20.5,M,-23.2,M,,*55
$GPRMC,203703.000,A,3832.8235,N,12144.3695,W,0.79,291.71,220514,,,A*76
$GPVTG,291.71,T,,M,0.79,N,1.46,K,A*3C
$GPGGA,203704.000,3832.8232,N,12144.3698,W,1,8,1.03,20.5,M,-23.2,M,,*58
$GPRMC,203704.000,A,3832.8232,N,12144.3698,W,0.74,287.96,220514,,,A*78
$GPVTG,287.96,T,,M,0.74,N,1.38,K,A*36
$GPGGA,203705.000,3832.8230,N,12144.3703,W,1,8,1.04,20.4,M,-23.2,M,,*5E
$GPGSA,A,3,05,03,13,08,28,10,19,07,,,,,2.02,1.04,1.73*0A
$GPGSV,3,1,11,08,64,339,27,07,63,048,38,28,54,237,28,51,42,157,34*79
$GPGSV,3,2,11,13,36,145,38,19,33,066,24,03,28,052,20,10,22,229,26*7A
$GPGSV,3,3,11,05,21,286,29,17,01,189,,26,,,20*79
$GPRMC,203705.000,A,3832.8230,N,12144.3703,W,0.66,280.98,220514,,,A*72
$GPVTG,280.98,T,,M,0.66,N,1.23,K,A*36
$GPGGA,203706.000,3832.8224,N,12144.3707,W,1,8,1.03,20.4,M,-23.2,M,,*5B
$GPGSA,A,3,05,03,13,08,28,10,19,07,,,,,1.35,1.03,0.87*00
$GPGSV,3,1,11,08,64,339,29,07,63,048,38,28,54,237,28,51,42,157,34*77
$GPGSV,3,2,11,13,36,145,37,19,33,066,26,03,28,052,22,10,22,229,26*75
$GPGSV,3,3,11,05,21,286,28,17,01,189,,26,,,20*78
$GPRMC,203706.000,A,3832.8224,N,12144.3707,W,0.71,272.83,220514,,,A*71
$GPVTG,272.83,T,,M,0.71,N,1.31,K,A*34
$GPGGA,203707.000,3832.8201,N,12144.3724,W,1,8,1.04,20.6,M,-23.2,M,,*59
$GPRMC,203707.000,A,3832.8201,N,12144.3724,W,1.00,235.42,220514,,,A*7F
$GPVTG,235.42,T,,M,1.00,N,1.85,K,A*32
$GPGGA,203708.000,3832.8194,N,12144.3738,W,1,8,1.04,20.4,M,-23.2,M,,*56
$GPRMC,203708.000,A,3832.8194,N,12144.3738,W,1.19,235.41,220514,,,A*79
$GPVTG,235.41,T,,M,1.19,N,2.21,K,A*34
$GPGGA,203709.000,3832.8184,N,12144.3751,W,1,8,1.03,20.1,M,-23.2,M,,*5B
$GPRMC,203709.000,A,3832.8184,N,12144.3751,W,1.70,202.86,220514,,,A*76
$GPVTG,202.86,T,,M,1.70,N,3.14,K,A*33
$GPGGA,203710.000,3832.8177,N,12144.3760,W,1,8,1.03,20.1,M,-23.2,M,,*5D
$GPRMC,203710.000,A,3832.8177,N,12144.3760,W,1.97,199.62,220514,,,A*72
$GPVTG,199.62,T,,M,1.97,N,3.65,K,A*37
$GPGGA,203711.000,3832.8170,N,12144.3771,W,1,8,1.03,20.0,M,-23.2,M,,*5A
$GPGSA,A,3,05,03,13,08,28,10,19,07,,,,,1.35,1.03,0.87*00
$GPGSV,3,1,11,08,64,339,30,07,63,048,27,28,54,237,37,51,42,157,30*7B
$GPGSV,3,2,11,13,36,145,24,19,33,066,26,03,28,052,25,10,22,229,36*71
$GPGSV,3,3,11,05,21,286,24,17,01,189,,26,,,29*7D
$GPRMC,203711.000,A,3832.8170,N,12144.3771,W,2.28,212.43,220514,,,A*70
$GPVTG,212.43,T,,M,2.28,N,4.22,K,A*37
$GPGGA,203712.000,3832.8163,N,12144.3775,W,1,8,1.03,20.2,M,-23.2,M,,*5D
$GPGSA,A,3,05,03,13,08,28,10,19,07,,,,,1.35,1.03,0.87*00
$GPGSV,3,1,11,08,64,339,29,07,63,048,27,28,54,237,35,51,42,157,26*76
$GPGSV,3,2,11,13,36,145,26,19,33,066,25,03,28,052,25,10,22,229,35*73
$GPGSV,3,3,11,05,21,286,24,17,01,189,,26,,,28*7C
$GPRMC,203712.000,A,3832.8163,N,12144.3775,W,2.40,203.64,220514,,,A*7E
$GPVTG,203.64,T,,M,2.40,N,4.44,K,A*3C
$GPGGA,203713.000,3832.8156,N,12144.3779,W,1,8,1.03,20.2,M,-23.2,M,,*56
$GPRMC,203713.000,A,3832.8156,N,12144.3779,W,1.90,191.28,220514,,,A*7B
$GPVTG,191.28,T,,M,1.90,N,3.52,K,A*32
$GPGGA,203714.000,3832.8149,N,12144.3781,W,1,8,1.03,20.3,M,-23.2,M,,*59
$GPRMC,203714.000,A,3832.8149,N,12144.3781,W,1.55,168.02,220514,,,A*72
$GPVTG,168.02,T,,M,1.55,N,2.88,K,A*33
$GPGGA,203715.000,3832.8144,N,12144.3779,W,1,8,1.03,20.5,M,-23.2,M,,*54
$GPRMC,203715.000,A,3832.8144,N,12144.3779,W,1.90,177.12,220514,,,A*7F
$GPVTG,177.12,T,,M,1.90,N,3.52,K,A*33
$GPGGA,203716.000,3832.8139,N,12144.3779,W,1,8,1.03,20.7,M,-23.2,M,,*5F
$GPRMC,203716.000,A,3832.8139,N,12144.3779,W,1.37,177.52,220514,,,A*7F
$GPVTG,177.52,T,,M,1.37,N,2.55,K,A*3C
$GPGGA,203717.000,3832.8132,N,12144.3777,W,1,8,1.03,20.9,M,-23.2,M,,*55
$GPGSA,A,3,05,03,13,08,28,10,19,07,,,,,1.35,1.03,0.87*00
$GPGSV,3,1,11,08,64,339,31,07,63,048,28,28,54,237,36,51,42,157,35*71
$GPGSV,3,2,11,13,36,145,30,19,33,066,23,03,28,052,24,05,21,286,26*73
$GPGSV,3,3,11,10,21,229,31,17,01,189,,26,,,27*76
$GPRMC,203717.000,A,3832.8132,N,12144.3777,W,1.89,175.74,220514,,,A*78
$GPVTG,175.74,T,,M,1.89,N,3.51,K,A*3A
$GPGGA,203718.000,3832.8123,N,12144.3772,W,1,8,1.03,21.1,M,-23.2,M,,*56
$GPGSA,A,3,05,03,13,08,28,10,19,07,,,,,1.35,1.03,0.87*00
$GPGSV,3,1,11,08,64,339,33,07,63,048,28,28,54,237,34,51,42,157,33*77
$GPGSV,3,2,11,13,36,145,30,19,33,066,24,03,28,052,25,05,21,286,25*76
$GPGSV,3,3,11,10,21,229,31,17,01,189,,26,,,27*76
$GPRMC,203718.000,A,3832.8123,N,12144.3772,W,1.50,144.31,220514,,,A*75
$GPVTG,144.31,T,,M,1.50,N,2.78,K,A*37
$GPGGA,203719.000,3832.8116,N,12144.3767,W,1,8,1.03,21.3,M,-23.2,M,,*57
$GPRMC,203719.000,A,3832.8116,N,12144.3767,W,1.48,150.10,220514,,,A*79
$GPVTG,150.10,T,,M,1.48,N,2.73,K,A*33
$GPGGA,203720.000,3832.8106,N,12144.3769,W,1,8,1.03,21.5,M,-23.2,M,,*54
$GPRMC,203720.000,A,3832.8106,N,12144.3769,W,1.43,195.85,220514,,,A*72
$GPVTG,195.85,T,,M,1.43,N,2.66,K,A*39
$GPGGA,203721.000,3832.8095,N,12144.3776,W,1,8,1.03,21.8,M,-23.2,M,,*5D
$GPRMC,203721.000,A,3832.8095,N,12144.3776,W,1.60,196.41,220514,,,A*7C
$GPVTG,196.41,T,,M,1.60,N,2.97,K,A*3D
$GPGGA,203722.000,3832.8088,N,12144.3776,W,1,8,1.03,22.0,M,-23.2,M,,*59
$GPRMC,203722.000,A,3832.8088,N,12144.3776,W,1.50,195.19,220514,,,A*7E
$GPVTG,195.19,T,,M,1.50,N,2.78,K,A*31
$GPGGA,203723.000,3832.8082,N,12144.3777,W,1,8,1.03,22.2,M,-23.2,M,,*51
$GPGSA,A,3,05,03,13,08,28,10,19,07,,,,,1.35,1.03,0.87*00
$GPGSV,3,1,11,08,64,339,35,07,63,048,28,28,54,237,35,51,42,157,38*7B
$GPGSV,3,2,11,13,36,146,29,19,33,066,27,03,28,052,25,05,21,286,29*72
$GPGSV,3,3,11,10,21,229,30,17,01,189,,26,,,34*75
$GPRMC,203723.000,A,3832.8082,N,12144.3777,W,1.45,194.26,220514,,,A*7D
$GPVTG,194.26,T,,M,1.45,N,2.69,K,A*38
$GPGGA,203724.000,3832.8078,N,12144.3784,W,1,8,1.03,22.1,M,-23.2,M,,*5C
$GPGSA,A,3,05,03,13,08,28,10,19,07,,,,,1.35,1.03,0.87*00
$GPGSV,3,1,11,08,64,339,37,07,63,048,28,28,54,237,33,51,42,157,39*7E
$GPGSV,3,2,11,13,36,146,28,19,33,066,27,03,28,052,24,05,21,286,30*7A
$GPGSV,3,3,11,10,21,229,31,17,01,189,,26,,,33*73
$GPRMC,203724.000,A,3832.8078,N,12144.3784,W,1.31,194.27,220514,,,A*71
$GPVTG,194.27,T,,M,1.31,N,2.43,K,A*32
$GPGGA,203725.000,3832.8074,N,12144.3783,W,1,8,1.03,22.3,M,-23.2,M,,*54
$GPRMC,203725.000,A,3832.8074,N,12144.3783,W,1.47,195.46,220514,,,A*7C
$GPVTG,195.46,T,,M,1.47,N,2.73,K,A*36
$GPGGA,203726.000,3832.8062,N,12144.3780,W,1,8,1.03,22.5,M,-23.2,M,,*55
$GPRMC,203726.000,A,3832.8062,N,12144.3780,W,1.81,195.56,220514,,,A*70
$GPVTG,195.56,T,,M,1.81,N,3.35,K,A*3E
$GPGGA,203727.000,3832.8054,N,12144.3781,W,1,8,1.03,22.7,M,-23.2,M,,*52
$GPRMC,203727.000,A,3832.8054,N,12144.3781,W,1.66,196.56,220514,,,A*7F
$GPVTG,196.56,T,,M,1.66,N,3.07,K,A*35
$GPGGA,203728.000,3832.8047,N,12144.3779,W,1,8,1.03,23.0,M,-23.2,M,,*5E
$GPRMC,203728.000,A,3832.8047,N,12144.3779,W,1.29,193.12,220514,,,A*7B
$GPVTG,193.12,T,,M,1.29,N,2.40,K,A*39
$GPGGA,203729.000,3832.8040,N,12144.3781,W,1,8,1.03,23.3,M,-23.2,M,,*5C
$GPGSA,A,3,05,03,13,08,28,10,19,07,,,,,1.35,1.03,0.87*00
$GPGSV,3,1,11,08,64,339,30,07,63,048,27,28,54,237,33,51,42,157,29*77
$GPGSV,3,2,11,13,36,146,34,19,33,066,27,03,28,052,23,05,21,286,31*71
$GPGSV,3,3,11,10,21,229,33,17,01,189,,26,,,30*72
$GPRMC,203729.000,A,3832.8040,N,12144.3781,W,1.40,188.94,220514,,,A*71
$GPVTG,188.94,T,,M,1.40,N,2.59,K,A*3A
$GPGGA,203730.000,3832.8035,N,12144.3782,W,1,8,1.03,23.5,M,-23.2,M,,*53
$GPGSA,A,3,05,03,13,08,28,10,19,07,,,,,1.35,1.03,0.87*00
$GPGSV,3,1,11,08,64,339,32,07,63,048,36,28,54,237,34,51,42,157,29*72
$GPGSV,3,2,11,13,36,146,25,19,33,066,27,03,28,052,23,05,21,286,29*78
$GPGSV,3,3,11,10,21,229,32,17,01,189,,26,,,30*73
$GPRMC,203730.000,A,3832.8035,N,12144.3782,W,1.41,185.97,220514,,,A*77
$GPVTG,185.97,T,,M,1.41,N,2.61,K,A*3E
$GPGGA,203731.000,3832.8032,N,12144.3784,W,1,8,1.03,23.8,M,-23.2,M,,*5E
$GPRMC,203731.000,A,3832.8032,N,12144.3784,W,1.31,186.42,220514,,,A*7B
$GPVTG,186.42,T,,M,1.31,N,2.42,K,A*33
$GPGGA,203732.000,3832.8027,N,12144.3787,W,1,8,1.03,24.1,M,-23.2,M,,*54
$GPRMC,203732.000,A,3832.8027,N,12144.3787,W,1.42,187.68,220514,,,A*72
$GPVTG,187.68,T,,M,1.42,N,2.63,K,A*3D
$GPGGA,203733.000,3832.8028,N,12144.3787,W,1,8,1.03,23.8,M,-23.2,M,,*54
$GPRMC,203733.000,A,3832.8028,N,12144.3787,W,1.00,187.26,220514,,,A*70
$GPVTG,187.26,T,,M,1.00,N,1.86,K,A*39
$GPGGA,203734.000,3832.8026,N,12144.3787,W,1,8,1.03,23.6,M,-23.2,M,,*53
$GPRMC,203734.000,A,3832.8026,N,12144.3787,W,0.85,186.57,220514,,,A*72
$GPVTG,186.57,T,,M,0.85,N,1.58,K,A*31
$GPGGA,203735.000,3832.8012,N,12144.3778,W,1,8,1.03,24.0,M,-23.2,M,,*54
$GPGSA,A,3,05,03,13,08,28,10,19,07,,,,,1.35,1.03,0.87*00
$GPGSV,3,1,11,08,64,339,24,07,63,048,27,28,54,237,30,51,42,157,28*70
$GPGSV,3,2,11,13,36,146,24,19,33,066,25,03,28,052,24,05,21,286,33*77
$GPGSV,3,3,11,10,21,229,33,17,01,189,,26,,,27*74
$GPRMC,203735.000,A,3832.8012,N,12144.3778,W,1.79,160.03,220514,,,A*7F
$GPVTG,160.03,T,,M,1.79,N,3.31,K,A*37
$GPGGA,203736.000,3832.8006,N,12144.3776,W,1,8,1.03,24.2,M,-23.2,M,,*5E
$GPGSA,A,3,05,03,13,08,28,10,19,07,,,,,1.35,1.03,0.87*00
$GPGSV,3,1,11,08,64,339,25,07,63,048,25,28,54,237,29,51,42,157,27*74
$GPGSV,3,2,11,13,36,146,23,19,33,066,25,03,28,052,23,05,21,286,32*76
$GPGSV,3,3,11,10,21,229,32,17,01,189,,26,,,26*74
$GPRMC,203736.000,A,3832.8006,N,12144.3776,W,1.84,160.96,220514,,,A*79
$GPVTG,160.96,T,,M,1.84,N,3.40,K,A*3F
$GPGGA,203737.000,3832.7998,N,12144.3776,W,1,8,1.03,24.4,M,-23.2,M,,*58
$GPRMC,203737.000,A,3832.7998,N,12144.3776,W,1.97,166.84,220514,,,A*7E
$GPVTG,166.84,T,,M,1.97,N,3.64,K,A*3E
$GPGGA,203738.000,3832.7992,N,12144.3775,W,1,8,1.03,24.7,M,-23.2,M,,*5D
$GPRMC,203738.000,A,3832.7992,N,12144.3775,W,2.00,165.64,220514,,,A*78
$GPVTG,165.64,T,,M,2.00,N,3.71,K,A*3A
$GPGGA,203739.000,3832.7985,N,12144.3775,W,1,8,1.03,24.9,M,-23.2,M,,*54
$GPRMC,203739.000,A,3832.7985,N,12144.3775,W,2.02,165.31,220514,,,A*7D
$GPVTG,165.31,T,,M,2.02,N,3.75,K,A*3C
$GPGGA,203740.000,3832.7979,N,12144.3775,W,1,8,1.03,25.2,M,-23.2,M,,*53
$GPRMC,203740.000,A,3832.7979,N,12144.3775,W,1.95,166.41,220514,,,A*79
$GPVTG,166.41,T,,M,1.95,N,3.61,K,A*30
$GPGGA,203741.000,3832.7975,N,12144.3775,W,1,8,1.03,25.4,M,-23.2,M,,*58
$GPGSA,A,3,05,03,13,08,28,10,19,07,,,,,1.35,1.03,0.86*01
$GPGSV,3,1,11,08,64,339,24,07,63,048,23,28,54,237,30,51,42,157,26*7A
$GPGSV,3,2,11,13,36,146,22,19,33,066,24,03,28,052,21,05,21,286,29*7E
$GPGSV,3,3,11,10,21,229,27,17,01,189,,26,,,22*74
$GPRMC,203741.000,A,3832.7975,N,12144.3775,W,1.79,165.15,220514,,,A*74
$GPVTG,165.15,T,,M,1.79,N,3.31,K,A*35
$GPGGA,203742.000,3832.7968,N,12144.3775,W,1,8,1.03,25.6,M,-23.2,M,,*55
$GPGSA,A,3,05,03,13,08,28,10,19,07,,,,,1.35,1.03,0.86*01
$GPGSV,3,1,11,08,64,339,23,07,63,048,22,28,54,237,31,51,42,157,26*7D
$GPGSV,3,2,11,13,36,146,22,19,33,066,23,03,27,052,21,05,21,286,28*77
$GPGSV,3,3,11,10,21,229,27,17,01,189,,26,,,21*77
$GPRMC,203742.000,A,3832.7968,N,12144.3775,W,1.81,166.65,220514,,,A*78
$GPVTG,166.65,T,,M,1.81,N,3.35,K,A*32
$GPGGA,203743.000,3832.7962,N,12144.3774,W,1,7,1.13,26.0,M,-23.2,M,,*54
$GPRMC,203743.000,A,3832.7962,N,12144.3774,W,1.55,176.14,220514,,,A*7C
$GPVTG,176.14,T,,M,1.55,N,2.88,K,A*3B
$GPGGA,203744.000,3832.7959,N,12144.3775,W,1,8,1.03,26.2,M,-23.2,M,,*56
$GPRMC,203744.000,A,3832.7959,N,12144.3775,W,1.37,175.66,220514,,,A*70
$GPVTG,175.66,T,,M,1.37,N,2.53,K,A*3F
$GPGGA,203745.000,3832.7954,N,12144.3774,W,1,8,1.03,26.4,M,-23.2,M,,*5D
$GPRMC,203745.000,A,3832.7954,N,12144.3774,W,1.31,175.25,220514,,,A*7C
$GPVTG,175.25,T,,M,1.31,N,2.44,K,A*38
$GPGGA,203746.000,3832.7948,N,12144.3775,W,1,8,1.03,26.7,M,-23.2,M,,*51
$GPRMC,203746.000,A,3832.7948,N,12144.3775,W,1.30,175.00,220514,,,A*75
$GPVTG,175.00,T,,M,1.30,N,2.42,K,A*38
$GPGGA,203747.000,3832.7944,N,12144.3775,W,1,8,1.03,26.9,M,-23.2,M,,*52
$GPGSA,A,3,05,03,13,08,28,10,19,07,,,,,1.35,1.03,0.86*01
$GPGSV,3,1,11,08,64,340,24,07,63,049,25,28,54,237,24,35,40,210,*72
$GPGSV,3,2,11,13,36,146,23,19,33,066,25,03,27,052,23,05,21,285,28*71
$GPGSV,3,3,11,10,21,229,26,17,01,189,,26,,,23*74
$GPRMC,203747.000,A,3832.7944,N,12144.3775,W,1.30,175.35,220514,,,A*7E
$GPVTG,175.35,T,,M,1.30,N,2.41,K,A*3D
$GPGGA,203748.000,3832.7934,N,12144.3779,W,1,8,1.03,27.1,M,-23.2,M,,*5F
$GPGSA,A,3,05,03,13,08,28,10,19,07,,,,,1.35,1.03,0.86*01
$GPGSV,3,1,11,08,64,340,24,07,63,049,26,28,54,237,34,35,40,210,*70
$GPGSV,3,2,11,13,36,146,22,19,33,066,32,03,27,052,24,05,21,285,28*71
$GPGSV,3,3,11,10,21,229,30,17,01,189,,26,,,23*73
$GPRMC,203748.000,A,3832.7934,N,12144.3779,W,1.46,175.55,220514,,,A*7D
$GPVTG,175.55,T,,M,1.46,N,2.70,K,A*38
$GPGGA,203749.000,3832.7929,N,12144.3780,W,1,8,1.03,27.3,M,-23.2,M,,*56
$GPRMC,203749.000,A,3832.7929,N,12144.3780,W,1.40,175.90,220514,,,A*79
$GPVTG,175.90,T,,M,1.40,N,2.59,K,A*3C
$GPGGA,203750.000,3832.7922,N,12144.3777,W,1,8,1.03,27.6,M,-23.2,M,,*58
$GPRMC,203750.000,A,3832.7922,N,12144.3777,W,1.36,174.82,220514,,,A*71
$GPVTG,174.82,T,,M,1.36,N,2.52,K,A*34
$GPGGA,203751.000,3832.7905,N,12144.3772,W,1,8,1.03,27.8,M,-23.2,M,,*57
$GPRMC,203751.000,A,3832.7905,N,12144.3772,W,1.61,173.46,220514,,,A*7D
$GPVTG,173.46,T,,M,1.61,N,2.98,K,A*3F
$GPGGA,203752.000,3832.7884,N,12144.3762,W,1,8,1.03,27.9,M,-23.2,M,,*5C
$GPRMC,203752.000,A,3832.7884,N,12144.3762,W,1.95,169.15,220514,,,A*71
$GPVTG,169.15,T,,M,1.95,N,3.62,K,A*3D
$GPGGA,203753.000,3832.7860,N,12144.3748,W,1,8,1.03,28.0,M,-23.2,M,,*59
$GPGSA,A,3,05,03,13,08,28,10,19,07,,,,,1.35,1.03,0.86*01
$GPGSV,3,1,11,08,64,340,26,07,63,049,37,28,54,237,35,46,38,144,*7A
$GPGSV,3,2,11,13,36,146,42,19,33,066,23,03,27,052,24,05,21,285,29*76
$GPGSV,3,3,11,10,21,229,27,17,01,189,,26,,,26*70
$GPRMC,203753.000,A,3832.7860,N,12144.3748,W,1.78,171.13,220514,,,A*7E
$GPVTG,171.13,T,,M,1.78,N,3.30,K,A*36
$GPGGA,203754.000,3832.7860,N,12144.3752,W,1,8,1.03,28.3,M,-23.2,M,,*56
$GPGSA,A,3,05,03,13,08,28,10,19,07,,,,,1.35,1.03,0.86*01
$GPGSV,3,1,11,08,64,340,27,07,63,049,38,28,54,237,34,46,38,144,39*7F
$GPGSV,3,2,11,13,36,146,42,19,33,066,24,03,27,052,25,05,21,285,28*71
$GPGSV,3,3,11,10,21,229,27,17,01,189,,26,,,28*7E
$GPRMC,203754.000,A,3832.7860,N,12144.3752,W,1.37,194.79,220514,,,A*7E
$GPVTG,194.79,T,,M,1.37,N,2.53,K,A*3E
$GPGGA,203755.000,3832.7847,N,12144.3753,W,1,8,1.03,28.2,M,-23.2,M,,*52
$GPRMC,203755.000,A,3832.7847,N,12144.3753,W,1.59,190.94,220514,,,A*74
$GPVTG,190.94,T,,M,1.59,N,2.95,K,A*3B
$GPGGA,203756.000,3832.7835,N,12144.3751,W,1,8,1.03,28.4,M,-23.2,M,,*50
$GPRMC,203756.000,A,3832.7835,N,12144.3751,W,2.15,181.61,220514,,,A*71
$GPVTG,181.61,T,,M,2.15,N,3.98,K,A*36
$GPGGA,203757.000,3832.7831,N,12144.3747,W,1,8,1.03,28.5,M,-23.2,M,,*53
$GPRMC,203757.000,A,3832.7831,N,12144.3747,W,2.24,159.56,220514,,,A*70
$GPVTG,159.56,T,,M,2.24,N,4.16,K,A*34
$GPGGA,203758.000,3832.7818,N,12144.3743,W,1,7,1.27,28.7,M,-23.2,M,,*58
$GPRMC,203758.000,A,3832.7818,N,12144.3743,W,3.05,152.04,220514,,,A*7E
$GPVTG,152.04,T,,M,3.05,N,5.65,K,A*3F
$GPGGA,203759.000,3832.7809,N,12144.3732,W,1,8,1.03,28.6,M,-23.2,M,,*57
$GPGSA,A,3,05,03,13,08,28,10,19,07,,,,,1.35,1.03,0.86*01
$GPGSV,3,1,11,08,64,340,36,07,63,049,41,28,54,237,38,46,38,144,29*7C
$GPGSV,3,2,11,13,36,146,39,19,33,065,25,03,27,052,25,05,21,285,25*72
$GPGSV,3,3,11,10,21,229,32,17,01,189,,26,,,26*74
$GPRMC,203759.000,A,3832.7809,N,12144.3732,W,2.62,161.09,220514,,,A*74
$GPVTG,161.09,T,,M,2.62,N,4.86,K,A*3E
$GPGGA,203800.000,3832.7803,N,12144.3728,W,1,8,1.03,28.9,M,-23.2,M,,*5A
$GPGSA,A,3,05,03,13,08,28,10,19,07,,,,,1.35,1.03,0.86*01
$GPGSV,3,1,11,08,64,340,36,07,63,049,41,28,54,237,31,46,38,144,36*7B
$GPGSV,3,2,11,13,36,146,41,19,33,065,27,03,27,052,24,05,21,285,25*7E
$GPGSV,3,3,11,10,21,229,31,17,01,189,,26,,,27*76
$GPRMC,203800.000,A,3832.7803,N,12144.3728,W,2.02,168.19,220514,,,A*78
$GPVTG,168.19,T,,M,2.02,N,3.75,K,A*3B
$GPGGA,203801.000,3832.7796,N,12144.3731,W,1,8,1.03,29.1,M,-23.2,M,,*59
$GPRMC,203801.000,A,3832.7796,N,12144.3731,W,2.32,204.64,220514,,,A*72
$GPVTG,204.64,T,,M,2.32,N,4.30,K,A*3D
$GPGGA,203802.000,3832.7790,N,12144.3734,W,1,8,1.03,29.4,M,-23.2,M,,*5C
$GPRMC,203802.000,A,3832.7790,N,12144.3734,W,3.11,217.78,220514,,,A*7D
$GPVTG,217.78,T,,M,3.11,N,5.77,K,A*30
$GPGGA,203803.000,3832.7786,N,12144.3735,W,1,8,1.03,28.9,M,-23.2,M,,*57
$GPRMC,203803.000,A,3832.7786,N,12144.3735,W,2.98,229.35,220514,,,A*7E
$GPVTG,229.35,T,,M,2.98,N,5.52,K,A*33
$GPGGA,203804.000,3832.7782,N,12144.3743,W,1,8,1.03,29.1,M,-23.2,M,,*5C
$GPRMC,203804.000,A,3832.7782,N,12144.3743,W,2.40,245.22,220514,,,A*75
$GPVTG,245.22,T,,M,2.40,N,4.45,K,A*3D
$GPGGA,203805.000,3832.7782,N,12144.3752,W,1,8,1.03,29.2,M,-23.2,M,,*5E
$GPGSA,A,3,05,03,13,08,28,10,19,07,,,,,1.35,1.03,0.86*01
$GPGSV,3,1,11,08,64,340,26,07,63,049,30,28,54,237,40,46,38,144,35*79
$GPGSV,3,2,11,13,36,146,40,19,33,065,29,03,27,052,25,05,21,285,32*76
$GPGSV,3,3,11,10,21,229,41,17,01,189,,26,,,24*72
$GPRMC,203805.000,A,3832.7782,N,12144.3752,W,1.30,253.85,220514,,,A*7A
$GPVTG,253.85,T,,M,1.30,N,2.41,K,A*31
$GPGGA,203806.000,3832.7787,N,12144.3759,W,1,8,1.03,28.5,M,-23.2,M,,*55
$GPGSA,A,3,05,03,13,08,28,10,19,07,,,,,1.35,1.03,0.86*01
$GPGSV,3,1,11,08,64,340,27,07,63,049,30,28,54,237,41,46,38,144,34*78
$GPGSV,3,2,11,13,36,146,40,19,33,065,30,03,27,052,26,05,21,285,34*7B
$GPGSV,3,3,11,10,21,229,41,17,01,189,,26,,,25*73
$GPRMC,203806.000,A,3832.7787,N,12144.3759,W,1.57,256.02,220514,,,A*7C
$GPVTG,256.02,T,,M,1.57,N,2.90,K,A*36
$GPGGA,203807.000,3832.7791,N,12144.3768,W,1,8,1.03,28.5,M,-23.2,M,,*51
$GPRMC,203807.000,A,3832.7791,N,12144.3768,W,2.45,262.47,220514,,,A*7E
$GPVTG,262.47,T,,M,2.45,N,4.55,K,A*3F
$GPGGA,203808.000,3832.7795,N,12144.3780,W,1,8,1.03,28.1,M,-23.2,M,,*58
$GPRMC,203808.000,A,3832.7795,N,12144.3780,W,2.98,269.71,220514,,,A*7D
$GPVTG,269.71,T,,M,2.98,N,5.53,K,A*36
$GPGGA,203809.000,3832.7799,N,12144.3794,W,1,8,1.03,27.8,M,-23.2,M,,*56
$GPRMC,203809.000,A,3832.7799,N,12144.3794,W,2.79,265.52,220514,,,A*77
$GPVTG,265.52,T,,M,2.79,N,5.17,K,A*34
$GPGGA,203810.000,3832.7796,N,12144.3806,W,1,8,1.03,27.8,M,-23.2,M,,*55
$GPRMC,203810.000,A,3832.7796,N,12144.3806,W,3.42,243.16,220514,,,A*79
$GPVTG,243.16,T,,M,3.42,N,6.33,K,A*3C
$GPGGA,203811.000,3832.7792,N,12144.3815,W,1,8,1.03,27.8,M,-23.2,M,,*52
$GPGSA,A,3,05,03,13,08,28,10,19,07,,,,,1.35,1.03,0.86*01
$GPGSV,3,1,11,08,64,340,35,07,63,049,33,28,55,238,42,46,38,144,34*75
$GPGSV,3,2,11,13,36,146,40,19,33,065,27,03,27,052,27,05,21,285,30*78
$GPGSV,3,3,11,10,21,229,38,17,01,189,,26,,,24*7C
$GPRMC,203811.000,A,3832.7792,N,12144.3815,W,3.04,253.94,220514,,,A*77
$GPVTG,253.94,T,,M,3.04,N,5.64,K,A*34
$GPGGA,203812.000,3832.7792,N,12144.3826,W,1,8,1.03,27.0,M,-23.2,M,,*59
$GPGSA,A,3,05,03,13,08,28,10,19,07,,,,,1.35,1.03,0.86*01
$GPGSV,3,1,11,08,64,340,34,07,63,049,33,28,55,238,43,46,38,144,34*75
$GPGSV,3,2,11,13,36,146,39,19,33,065,29,03,27,052,28,05,21,285,32*75
$GPGSV,3,3,11,10,21,229,38,17,01,189,,26,,,25*7D
$GPRMC,203812.000,A,3832.7792,N,12144.3826,W,3.42,259.18,220514,,,A*78
$GPVTG,259.18,T,,M,3.42,N,6.34,K,A*3E
$GPGGA,203813.000,3832.7792,N,12144.3838,W,1,8,1.03,26.5,M,-23.2,M,,*53
$GPRMC,203813.000,A,3832.7792,N,12144.3838,W,2.89,268.10,220514,,,A*7A
$GPVTG,268.10,T,,M,2.89,N,5.36,K,A*33
$GPGGA,203814.000,3832.7797,N,12144.3849,W,1,8,1.03,26.2,M,-23.2,M,,*50
$GPRMC,203814.000,A,3832.7797,N,12144.3849,W,2.65,290.18,220514,,,A*73
$GPVTG,290.18,T,,M,2.65,N,4.90,K,A*33
$GPGGA,203815.000,3832.7800,N,12144.3856,W,1,8,1.03,26.2,M,-23.2,M,,*5E
$GPRMC,203815.000,A,3832.7800,N,12144.3856,W,2.28,297.87,220514,,,A*75
$GPVTG,297.87,T,,M,2.28,N,4.23,K,A*33
$GPGGA,203816.000,3832.7803,N,12144.3863,W,1,8,1.03,26.2,M,-23.2,M,,*58
$GPRMC,203816.000,A,3832.7803,N,12144.3863,W,2.31,298.65,220514,,,A*78
$GPVTG,298.65,T,,M,2.31,N,4.27,K,A*3C
$GPGGA,203817.000,3832.7801,N,12144.3870,W,1,8,1.03,26.4,M,-23.2,M,,*5F
$GPGSA,A,3,05,03,13,08,28,10,19,07,,,,,1.35,1.03,0.86*01
$GPGSV,3,1,11,08,64,340,30,07,63,049,29,28,55,238,34,46,38,144,30*7E
$GPGSV,3,2,11,13,36,146,38,19,33,065,31,03,27,051,28,05,21,285,30*7C
$GPGSV,3,3,11,10,21,229,25,17,01,189,,26,,,33*76
$GPRMC,203817.000,A,3832.7801,N,12144.3870,W,1.52,308.15,220514,,,A*70
$GPVTG,308.15,T,,M,1.52,N,2.82,K,A*3C
$GPGGA,203818.000,3832.7805,N,12144.3872,W,1,8,1.03,26.2,M,-23.2,M,,*50
$GPGSA,A,3,05,03,13,08,28,10,19,07,,,,,1.35,1.03,0.86*01
$GPGSV,3,1,11,08,64,340,30,07,63,049,31,28,55,238,42,46,38,144,29*7E
$GPGSV,3,2,11,13,36,146,31,19,33,065,32,03,27,051,28,05,21,285,29*7E
$GPGSV,3,3,11,10,21,229,24,17,01,189,,26,,,40*73
$GPRMC,203818.000,A,3832.7805,N,12144.3872,W,1.56,315.95,220514,,,A*79
$GPVTG,315.95,T,,M,1.56,N,2.88,K,A*36
$GPGGA,203819.000,3832.7807,N,12144.3877,W,1,8,1.03,26.2,M,-23.2,M,,*56
$GPRMC,203819.000,A,3832.7807,N,12144.3877,W,2.30,340.13,220514,,,A*72
$GPVTG,340.13,T,,M,2.30,N,4.26,K,A*39
$GPGGA,203820.000,3832.7814,N,12144.3878,W,1,8,1.03,26.0,M,-23.2,M,,*53
$GPRMC,203820.000,A,3832.7814,N,12144.3878,W,3.01,348.80,220514,,,A*74
$GPVTG,348.80,T,,M,3.01,N,5.58,K,A*30
$GPGGA,203821.000,3832.7828,N,12144.3887,W,1,8,1.04,25.1,M,-23.2,M,,*58
$GPRMC,203821.000,A,3832.7828,N,12144.3887,W,2.93,328.03,220514,,,A*7D
$GPVTG,328.03,T,,M,2.93,N,5.42,K,A*3C
$GPGGA,203822.000,3832.7832,N,12144.3891,W,1,8,1.03,24.8,M,-23.2,M,,*58
$GPRMC,203822.000,A,3832.7832,N,12144.3891,W,2.41,329.83,220514,,,A*74
$GPVTG,329.83,T,,M,2.41,N,4.46,K,A*3F
$GPGGA,203823.000,3832.7842,N,12144.3902,W,1,8,1.03,24.6,M,-23.2,M,,*5B
$GPGSA,A,3,05,03,13,08,28,10,19,07,,,,,1.35,1.03,0.86*01
$GPGSV,3,1,11,08,64,340,35,07,63,049,30,28,55,238,41,46,38,144,25*75
$GPGSV,3,2,11,13,36,146,26,19,33,065,31,03,27,051,28,05,21,285,34*77
$GPGSV,3,3,11,10,21,229,31,17,01,189,,26,,,25*74
$GPRMC,203823.000,A,3832.7842,N,12144.3902,W,2.76,335.54,220514,,,A*7A
$GPVTG,335.54,T,,M,2.76,N,5.12,K,A*3C
$GPGGA,203824.000,3832.7851,N,12144.3907,W,1,8,1.03,24.3,M,-23.2,M,,*5E
$GPGSA,A,3,05,03,13,08,28,10,19,07,,,,,1.35,1.03,0.86*01
$GPGSV,3,1,11,08,64,340,35,07,63,049,27,28,55,238,41,46,38,144,25*73
$GPGSV,3,2,11,13,36,146,25,19,33,065,31,03,27,051,28,05,21,285,35*75
$GPGSV,3,3,11,10,21,229,30,17,01,189,,26,,,26*76
$GPRMC,203824.000,A,3832.7851,N,12144.3907,W,2.48,332.24,220514,,,A*77
$GPVTG,332.24,T,,M,2.48,N,4.60,K,A*35
$GPGGA,203825.000,3832.7860,N,12144.3909,W,1,8,1.03,24.2,M,-23.2,M,,*52
$GPRMC,203825.000,A,3832.7860,N,12144.3909,W,1.65,340.25,220514,,,A*72
$GPVTG,340.25,T,,M,1.65,N,3.05,K,A*39
$GPGGA,203826.000,3832.7865,N,12144.3908,W,1,8,1.03,24.1,M,-23.2,M,,*56
$GPRMC,203826.000,A,3832.7865,N,12144.3908,W,1.91,348.09,220514,,,A*78
$GPVTG,348.09,T,,M,1.91,N,3.53,K,A*37
$GPGGA,203827.000,3832.7864,N,12144.3902,W,1,7,1.49,23.3,M,-23.2,M,,*58
$GPRMC,203827.000,A,3832.7864,N,12144.3902,W,1.64,351.86,220514,,,A*77
$GPVTG,351.86,T,,M,1.64,N,3.04,K,A*30
$GPGGA,203828.000,3832.7870,N,12144.3899,W,1,7,1.49,23.7,M,-23.2,M,,*55
$GPRMC,203828.000,A,3832.7870,N,12144.3899,W,2.01,5.28,220514,,,A*78
$GPVTG,5.28,T,,M,2.01,N,3.72,K,A*37
$GPGGA,203829.000,3832.7874,N,12144.3893,W,1,7,1.11,24.1,M,-23.2,M,,*56
$GPGSA,A,3,05,03,13,28,10,19,07,,,,,,2.30,1.11,2.01*01
$GPGSV,3,1,11,08,64,340,,07,63,049,39,28,55,238,34,46,38,144,26*7B
$GPGSV,3,2,11,13,36,146,26,19,33,065,34,03,27,051,41,05,21,285,27*7F
$GPGSV,3,3,11,10,21,229,28,17,01,189,,26,,,26*7F
$GPRMC,203829.000,A,3832.7874,N,12144.3893,W,1.60,5.65,220514,,,A*7A
$GPVTG,5.65,T,,M,1.60,N,2.97,K,A*30
$GPGGA,203830.000,3832.7878,N,12144.3889,W,1,8,1.04,24.7,M,-23.2,M,,*54
$GPGSA,A,3,05,03,13,08,28,10,19,07,,,,,2.00,1.04,1.71*0A
$GPGSV,3,1,11,08,64,340,32,07,63,049,39,28,55,238,33,46,38,144,25*7E
$GPGSV,3,2,11,13,36,146,27,19,33,065,34,03,27,051,39,05,21,285,28*7E
$GPGSV,3,3,11,10,21,229,27,17,01,189,,26,,,26*70
$GPRMC,203830.000,A,3832.7878,N,12144.3889,W,1.92,4.37,220514,,,A*7E
$GPVTG,4.37,T,,M,1.92,N,3.56,K,A*37
$GPGGA,203831.000,3832.7881,N,12144.3888,W,1,8,1.04,24.8,M,-23.2,M,,*5D
$GPRMC,203831.000,A,3832.7881,N,12144.3888,W,2.15,356.40,220514,,,A*70
$GPVTG,356.40,T,,M,2.15,N,3.99,K,A*3C
$GPGGA,203832.000,3832.7882,N,12144.3882,W,1,8,1.04,25.1,M,-23.2,M,,*5F
$GPRMC,203832.000,A,3832.7882,N,12144.3882,W,0.98,11.43,220514,,,A*4E
$GPVTG,11.43,T,,M,0.98,N,1.81,K,A*03
$GPGGA,203833.000,3832.7876,N,12144.3870,W,1,8,1.04,26.0,M,-23.2,M,,*5A
$GPRMC,203833.000,A,3832.7876,N,12144.3870,W,1.50,355.52,220514,,,A*7F
$GPVTG,355.52,T,,M,1.50,N,2.78,K,A*30
$GPGGA,203834.000,3832.7878,N,12144.3867,W,1,8,1.04,25.1,M,-23.2,M,,*57
$GPRMC,203834.000,A,3832.7878,N,12144.3867,W,1.45,354.88,220514,,,A*72
$GPVTG,354.88,T,,M,1.45,N,2.69,K,A*32
$GPGGA,203835.000,3832.7882,N,12144.3866,W,1,8,1.04,25.4,M,-23.2,M,,*57
$GPGSA,A,3,05,03,13,08,28,10,19,07,,,,,2.00,1.04,1.71*0A
$GPGSV,3,1,11,08,64,340,28,07,63,049,38,28,55,238,28,13,36,146,25*72
$GPGSV,3,2,11,19,33,065,42,03,27,051,29,05,21,285,28,10,21,229,23*75
$GPGSV,3,3,11,47,14,250,,17,01,189,,26,,,26*7F
$GPRMC,203835.000,A,3832.7882,N,12144.3866,W,1.52,353.87,220514,,,A*79
$GPVTG,353.87,T,,M,1.52,N,2.82,K,A*39
$GPGGA,203836.000,3832.7888,N,12144.3868,W,1,8,1.04,25.8,M,-23.2,M,,*5C
$GPGSA,A,3,05,03,13,08,28,10,19,07,,,,,2.00,1.04,1.71*0A
$GPGSV,3,1,11,08,64,340,28,07,63,049,36,28,55,238,27,13,36,146,26*70
$GPGSV,3,2,11,19,33,065,42,03,27,051,36,05,21,285,27,10,21,229,24*73
$GPGSV,3,3,11,47,14,250,,17,01,189,,26,,,27*7E
$GPRMC,203836.000,A,3832.7888,N,12144.3868,W,1.54,349.90,220514,,,A*75
$GPVTG,349.90,T,,M,1.54,N,2.86,K,A*36
$GPGGA,203837.000,3832.7892,N,12144.3869,W,1,7,1.06,26.1,M,-23.2,M,,*50
$GPRMC,203837.000,A,3832.7892,N,12144.3869,W,1.50,344.68,220514,,,A*70
$GPVTG,344.68,T,,M,1.50,N,2.77,K,A*36
$GPGGA,203838.000,3832.7895,N,12144.3870,W,1,8,1.03,26.3,M,-23.2,M,,*58
$GPRMC,203838.000,A,3832.7895,N,12144.3870,W,1.35,340.65,220514,,,A*7A
$GPVTG,340.65,T,,M,1.35,N,2.50,K,A*39
$GPGGA,203839.000,3832.7898,N,12144.3870,W,1,8,1.03,26.6,M,-23.2,M,,*51
$GPRMC,203839.000,A,3832.7898,N,12144.3870,W,1.22,338.83,220514,,,A*77
$GPVTG,338.83,T,,M,1.22,N,2.27,K,A*38
$GPGGA,203840.000,3832.7902,N,12144.3864,W,1,8,1.03,26.8,M,-23.2,M,,*56
$GPRMC,203840.000,A,3832.7902,N,12144.3864,W,1.14,343.51,220514,,,A*78
$GPVTG,343.51,T,,M,1.14,N,2.11,K,A*3B
$GPGGA,203841.000,3832.7920,N,12144.3870,W,1,8,1.35,27.3,M,-23.2,M,,*5D
$GPGSA,A,3,05,03,13,08,28,10,19,07,,,,,2.46,1.35,2.06*09
$GPGSV,3,1,11,08,64,340,23,07,63,049,30,28,55,238,27,48,43,197,*79
$GPGSV,3,2,11,13,36,146,38,19,33,065,43,03,27,051,40,05,21,285,27*71
$GPGSV,3,3,11,10,21,229,20,17,01,189,,26,,,22*73
$GPRMC,203841.000,A,3832.7920,N,12144.3870,W,1.29,351.41,220514,,,A*70
$GPVTG,351.41,T,,M,1.29,N,2.38,K,A*3C
$GPGGA,203842.000,3832.7921,N,12144.3867,W,1,8,1.27,27.4,M,-23.2,M,,*5D
$GPGSA,A,3,05,03,13,08,28,10,19,07,,,,,1.55,1.27,0.90*06
$GPGSV,3,1,11,08,64,340,31,07,63,049,38,28,55,238,30,48,43,197,30*77
$GPGSV,3,2,11,13,36,146,36,19,33,065,42,03,27,051,41,05,21,285,28*70
$GPGSV,3,3,11,10,21,229,20,17,01,189,,26,,,30*70
$GPRMC,203842.000,A,3832.7921,N,12144.3867,W,0.96,11.71,220514,,,A*45
$GPVTG,11.71,T,,M,0.96,N,1.79,K,A*0B
$GPGGA,203843.000,3832.7922,N,12144.3862,W,1,8,1.04,27.8,M,-23.2,M,,*57
$GPRMC,203843.000,A,3832.7922,N,12144.3862,W,0.89,12.79,220514,,,A*47
$GPVTG,12.79,T,,M,0.89,N,1.65,K,A*03
$GPGGA,203844.000,3832.7920,N,12144.3860,W,1,8,1.03,28.2,M,-23.2,M,,*52
$GPRMC,203844.000,A,3832.7920,N,12144.3860,W,0.48,356.84,220514,,,A*7C
$GPVTG,356.84,T,,M,0.48,N,0.88,K,A*3D
$GPGGA,203845.000,3832.7920,N,12144.3852,W,1,8,1.04,28.6,M,-23.2,M,,*51
$GPRMC,203845.000,A,3832.7920,N,12144.3852,W,0.55,1.26,220514,,,A*79
$GPVTG,1.26,T,,M,0.55,N,1.02,K,A*3B
$GPGGA,203846.000,3832.7918,N,12144.3850,W,1,8,1.04,28.8,M,-23.2,M,,*55
$GPRMC,203846.000,A,3832.7918,N,12144.3850,W,0.36,5.71,220514,,,A*70
$GPVTG,5.71,T,,M,0.36,N,0.67,K,A*3A
$GPGGA,203847.000,3832.7917,N,12144.3848,W,1,8,1.03,28.6,M,-23.2,M,,*5B
$GPGSA,A,3,05,03,13,08,28,10,19,07,,,,,1.34,1.03,0.86*00
$GPGSV,3,1,11,08,64,340,29,07,63,049,31,28,55,238,24,48,43,197,28*7B
$GPGSV,3,2,11,13,36,146,26,19,33,065,47,03,27,051,41,05,21,285,28*74
$GPGSV,3,3,11,10,21,229,20,17,01,189,,26,,,32*72
$GPRMC,203847.000,A,3832.7917,N,12144.3848,W,0.25,10.08,220514,,,A*4F
$GPVTG,10.08,T,,M,0.25,N,0.47,K,A*00
$GPGGA,203848.000,3832.7918,N,12144.3847,W,1,8,1.03,28.8,M,-23.2,M,,*5A
$GPGSA,A,3,05,03,13,08,28,10,19,07,,,,,1.35,1.03,0.86*01
$GPGSV,3,1,11,08,64,340,30,07,63,049,30,28,55,238,22,48,43,197,27*7B
$GPGSV,3,2,11,13,36,146,27,19,33,065,40,03,27,051,40,05,21,285,27*7C
$GPGSV,3,3,11,10,21,229,21,17,01,189,,26,,,25*75
$GPRMC,203848.000,A,3832.7918,N,12144.3847,W,0.12,10.08,220514,,,A*44
$GPVTG,10.08,T,,M,0.12,N,0.23,K,A*06
$GPGGA,203849.000,3832.7918,N,12144.3847,W,1,8,1.03,28.9,M,-23.2,M,,*5A
$GPRMC,203849.000,A,3832.7918,N,12144.3847,W,0.17,10.08,220514,,,A*40
$GPVTG,10.08,T,,M,0.17,N,0.31,K,A*00
$GPGGA,203850.000,3832.7918,N,12144.3846,W,1,8,1.03,29.0,M,-23.2,M,,*5B
$GPRMC,203850.000,A,3832.7918,N,12144.3846,W,0.24,43.05,220514,,,A*42
$GPVTG,43.05,T,,M,0.24,N,0.44,K,A*09
$GPGGA,203851.000,3832.7918,N,12144.3845,W,1,7,1.08,29.1,M,-23.2,M,,*5C
$GPRMC,203851.000,A,3832.7918,N,12144.3845,W,0.54,53.19,220514,,,A*4B
$GPVTG,53.19,T,,M,0.54,N,1.00,K,A*03
$GPGGA,203852.000,3832.7918,N,12144.3843,W,1,8,1.03,29.2,M,-23.2,M,,*5E
$GPRMC,203852.000,A,3832.7918,N,12144.3843,W,0.47,57.98,220514,,,A*41
$GPVTG,57.98,T,,M,0.47,N,0.87,K,A*02
$GPGGA,203853.000,3832.7919,N,12144.3842,W,1,8,1.03,29.2,M,-23.2,M,,*5F
$GPGSA,A,3,05,03,13,08,28,10,19,07,,,,,1.34,1.03,0.86*00
$GPGSV,3,1,12,08,64,341,28,07,63,050,30,28,55,238,23,48,43,197,27*79
$GPGSV,3,2,12,13,36,146,32,19,33,065,36,03,27,051,27,05,21,285,22*7E
$GPGSV,3,3,12,10,21,229,19,17,01,189,,23,,,38,26,,,17*76
$GPRMC,203853.000,A,3832.7919,N,12144.3842,W,0.43,60.71,220514,,,A*47
$GPVTG,60.71,T,,M,0.43,N,0.80,K,A*02
$GPGGA,203854.000,3832.7919,N,12144.3840,W,1,8,1.03,29.3,M,-23.2,M,,*5B
$GPGSA,A,3,05,03,13,08,28,10,19,07,,,,,1.34,1.03,0.86*00
$GPGSV,3,1,12,08,64,341,30,07,63,050,28,28,55,238,31,48,43,197,29*74
$GPGSV,3,2,12,13,36,146,32,19,33,065,36,03,27,051,27,05,21,285,23*7F
$GPGSV,3,3,12,10,21,229,19,17,01,189,,23,,,37,26,,,17*79
$GPRMC,203854.000,A,3832.7919,N,12144.3840,W,0.42,60.90,220514,,,A*4C
$GPVTG,60.90,T,,M,0.42,N,0.78,K,A*0B
$GPGGA,203855.000,3832.7920,N,12144.3839,W,1,8,1.03,29.3,M,-23.2,M,,*5E
$GPRMC,203855.000,A,3832.7920,N,12144.3839,W,0.45,61.24,220514,,,A*40
$GPVTG,61.24,T,,M,0.45,N,0.84,K,A*01
$GPGGA,203856.000,3832.7921,N,12144.3838,W,1,8,1.03,29.3,M,-23.2,M,,*5D
$GPRMC,203856.000,A,3832.7921,N,12144.3838,W,0.42,61.28,220514,,,A*48
$GPVTG,61.28,T,,M,0.42,N,0.79,K,A*08
$GPGGA,203857.000,3832.7921,N,12144.3836,W,1,7,1.13,29.4,M,-23.2,M,,*5B
$GPRMC,203857.000,A,3832.7921,N,12144.3836,W,0.43,63.25,220514,,,A*49
$GPVTG,63.25,T,,M,0.43,N,0.80,K,A*00
$GPGGA,203858.000,3832.7922,N,12144.3835,W,1,7,1.13,29.4,M,-23.2,M,,*54
$GPRMC,203858.000,A,3832.7922,N,12144.3835,W,0.43,65.69,220514,,,A*48
$GPVTG,65.69,T,,M,0.43,N,0.80,K,A*0E
$GPGGA,203859.000,3832.7922,N,12144.3833,W,1,8,1.03,29.4,M,-23.2,M,,*5D
$GPGSA,A,3,05,03,13,08,28,10,19,07,,,,,1.34,1.03,0.86*00
$GPGSV,3,1,12,08,64,341,26,07,63,050,31,28,55,238,34,48,43,197,30*76
$GPGSV,3,2,12,13,35,146,32,19,33,065,32,03,27,051,26,05,21,285,22*78
$GPGSV,3,3,12,10,21,229,16,17,01,189,,23,,,36,26,,,26*75
$GPRMC,203859.000,A,3832.7922,N,12144.3833,W,0.43,67.66,220514,,,A*42
$GPVTG,67.66,T,,M,0.43,N,0.80,K,A*03
$GPGGA,203900.000,3832.7922,N,12144.3832,W,1,7,1.13,29.4,M,-23.2,M,,*5F
$GPGSA,A,3,05,03,13,08,28,19,07,,,,,,1.44,1.13,0.88*09
$GPGSV,3,1,12,08,64,341,26,07,63,050,31,28,55,238,34,48,43,197,31*77
$GPGSV,3,2,12,13,35,146,32,19,33,065,31,03,27,051,28,05,21,285,20*77
$GPGSV,3,3,12,10,21,229,15,17,01,189,,23,,,36,26,,,26*76
$GPRMC,203900.000,A,3832.7922,N,12144.3832,W,0.56,71.72,220514,,,A*48
$GPVTG,71.72,T,,M,0.56,N,1.04,K,A*08
$GPGGA,203901.000,3832.7923,N,12144.3830,W,1,8,1.03,29.4,M,-23.2,M,,*53
$GPRMC,203901.000,A,3832.7923,N,12144.3830,W,0.49,73.95,220514,,,A*4F
$GPVTG,73.95,T,,M,0.49,N,0.90,K,A*01
$GPGGA,203902.000,3832.7923,N,12144.3828,W,1,7,1.13,29.5,M,-23.2,M,,*56
$GPRMC,203902.000,A,3832.7923,N,12144.3828,W,0.44,74.96,220514,,,A*4C
$GPVTG,74.96,T,,M,0.44,N,0.81,K,A*08
$GPGGA,203903.000,3832.7923,N,12144.3827,W,1,8,1.03,29.5,M,-23.2,M,,*56
$GPRMC,203903.000,A,3832.7923,N,12144.3827,W,0.51,77.86,220514,,,A*44
$GPVTG,77.86,T,,M,0.51,N,0.94,K,A*0A
$GPGGA,203904.000,3832.7923,N,12144.3825,W,1,8,1.03,29.5,M,-23.2,M,,*53
$GPRMC,203904.000,A,3832.7923,N,12144.3825,W,0.51,78.56,220514,,,A*43
$GPVTG,78.56,T,,M,0.51,N,0.95,K,A*09
$GPGGA,203905.000,3832.7923,N,12144.3823,W,1,8,1.03,29.5,M,-23.2,M,,*54
$GPGSA,A,3,05,03,13,08,28,10,19,07,,,,,1.34,1.03,0.86*00
$GPGSV,3,1,12,08,64,341,26,07,63,050,31,28,55,238,34,48,43,197,31*77
$GPGSV,3,2,12,13,35,146,31,19,33,065,24,03,27,051,36,05,21,285,23*7C
$GPGSV,3,3,12,10,21,229,16,17,01,189,,23,,,34,26,,,26*77
$GPRMC,203905.000,A,3832.7923,N,12144.3823,W,0.48,77.67,220514,,,A*41
$GPVTG,77.67,T,,M,0.48,N,0.88,K,A*00
$GPGGA,203906.000,3832.7924,N,12144.3821,W,1,8,1.03,29.5,M,-23.2,M,,*52
$GPGSA,A,3,05,03,13,08,28,10,19,07,,,,,1.34,1.03,0.86*00
$GPGSV,3,1,12,08,64,341,26,07,63,050,31,28,55,238,32,48,43,197,30*70
$GPGSV,3,2,12,13,35,146,30,19,33,065,24,03,27,051,35,05,21,285,24*79
$GPGSV,3,3,12,10,21,229,16,17,01,189,,23,,,34,26,,,25*74
$GPRMC,203906.000,A,3832.7924,N,12144.3821,W,0.29,77.00,220514,,,A*41
$GPVTG,77.00,T,,M,0.29,N,0.53,K,A*00
$GPGGA,203907.000,3832.7924,N,12144.3820,W,1,8,1.03,29.5,M,-23.2,M,,*52
$GPRMC,203907.000,A,3832.7924,N,12144.3820,W,0.25,76.55,220514,,,A*4C
$GPVTG,76.55,T,,M,0.25,N,0.47,K,A*08
$GPGGA,203908.000,3832.7924,N,12144.3819,W,1,8,1.03,29.5,M,-23.2,M,,*57
$GPRMC,203908.000,A,3832.7924,N,12144.3819,W,0.23,78.42,220514,,,A*47
$GPVTG,78.42,T,,M,0.23,N,0.43,K,A*02
$GPGGA,203909.000,3832.7924,N,12144.3819,W,1,8,1.03,29.5,M,-23.2,M,,*56
$GPRMC,203909.000,A,3832.7924,N,12144.3819,W,0.32,81.46,220514,,,A*44
$GPVTG,81.46,T,,M,0.32,N,0.60,K,A*01
$GPGGA,203910.000,3832.7924,N,12144.3818,W,1,8,1.03,29.5,M,-23.2,M,,*5F
$GPRMC,203910.000,A,3832.7924,N,12144.3818,W,0.38,81.80,220514,,,A*4D
$GPVTG,81.80,T,,M,0.38,N,0.71,K,A*01
$GPGGA,203911.000,3832.7924,N,12144.3816,W,1,8,1.03,29.5,M,-23.2,M,,*50
$GPGSA,A,3,05,03,13,08,28,10,19,07,,,,,1.34,1.03,0.86*00
$GPGSV,3,1,12,08,64,341,24,07,63,050,34,28,55,238,33,48,43,197,29*7E
$GPGSV,3,2,12,13,35,146,24,19,33,065,29,03,27,051,35,05,21,285,24*71
$GPGSV,3,3,12,10,21,229,16,17,01,189,,23,,,31,26,,,25*71
$GPRMC,203911.000,A,3832.7924,N,12144.3816,W,0.23,80.39,220514,,,A*4B
$GPVTG,80.39,T,,M,0.23,N,0.42,K,A*08
$GPGGA,203912.000,3832.7924,N,12144.3816,W,1,8,1.03,29.5,M,-23.2,M,,*53
$GPGSA,A,3,05,03,13,08,28,10,19,07,,,,,1.34,1.03,0.86*00
$GPGSV,3,1,12,08,64,341,24,07,63,050,34,28,55,238,33,48,43,197,29*7E
$GPGSV,3,2,12,13,35,146,23,19,33,065,29,03,27,051,36,05,21,285,24*75
$GPGSV,3,3,12,10,21,229,15,17,01,189,,23,,,31,26,,,25*72
$GPRMC,203912.000,A,3832.7924,N,12144.3816,W,0.16,80.39,220514,,,A*4E
$GPVTG,80.39,T,,M,0.16,N,0.29,K,A*03
$GPGGA,203913.000,3832.7924,N,12144.3815,W,1,7,1.13,29.5,M,-23.2,M,,*5F
$GPRMC,203913.000,A,3832.7924,N,12144.3815,W,0.19,80.39,220514,,,A*43
$GPVTG,80.39,T,,M,0.19,N,0.35,K,A*01
$GPGGA,203914.000,3832.7924,N,12144.3815,W,1,7,1.13,29.6,M,-23.2,M,,*5B
$GPRMC,203914.000,A,3832.7924,N,12144.3815,W,0.23,107.65,220514,,,A*7A
$GPVTG,107.65,T,,M,0.23,N,0.43,K,A*3E
$GPGGA,203915.000,3832.7923,N,12144.3815,W,1,8,1.03,29.6,M,-23.2,M,,*53
$GPRMC,203915.000,A,3832.7923,N,12144.3815,W,0.24,118.67,220514,,,A*77
$GPVTG,118.67,T,,M,0.24,N,0.44,K,A*32
$GPGGA,203916.000,3832.7922,N,12144.3815,W,1,8,1.03,29.6,M,-23.2,M,,*51
$GPRMC,203916.000,A,3832.7922,N,12144.3815,W,0.28,127.21,220514,,,A*77
$GPVTG,127.21,T,,M,0.28,N,0.53,K,A*36
$GPGGA,203917.000,3832.7922,N,12144.3814,W,1,8,1.03,29.6,M,-23.2,M,,*51
$GPGSA,A,3,05,03,13,08,28,10,19,07,,,,,1.34,1.03,0.86*00
$GPGSV,3,1,12,08,64,341,31,07,63,050,34,28,55,238,25,48,43,197,30*75
$GPGSV,3,2,12,13,35,146,18,19,33,065,43,03,27,051,37,05,21,285,25*71
$GPGSV,3,3,12,10,21,229,22,17,01,189,,23,,,23,26,,,21*71
$GPRMC,203917.000,A,3832.7922,N,12144.3814,W,0.29,145.16,220514,,,A*76
$GPVTG,145.16,T,,M,0.29,N,0.55,K,A*31
$GPGGA,203918.000,3832.7921,N,12144.3814,W,1,8,1.03,29.6,M,-23.2,M,,*5D
$GPGSA,A,3,05,03,13,08,28,10,19,07,,,,,1.34,1.03,0.86*00
$GPGSV,3,1,12,08,64,341,31,07,63,050,34,28,55,238,23,48,43,197,29*7B
$GPGSV,3,2,12,13,35,146,18,19,33,065,43,03,27,051,37,05,21,285,24*70
$GPGSV,3,3,12,10,21,229,24,17,01,189,,23,,,22,26,,,23*74
$GPRMC,203918.000,A,3832.7921,N,12144.3814,W,0.06,145.16,220514,,,A*77
$GPVTG,145.16,T,,M,0.06,N,0.12,K,A*3F
$GPGGA,203919.000,3832.7921,N,12144.3814,W,1,8,1.03,29.6,M,-23.2,M,,*5C
$GPRMC,203919.000,A,3832.7921,N,12144.3814,W,0.05,145.16,220514,,,A*75
$GPVTG,145.16,T,,M,0.05,N,0.09,K,A*36
$GPGGA,203920.000,3832.7921,N,12144.3814,W,1,8,1.03,29.6,M,-23.2,M,,*56
$GPRMC,203920.000,A,3832.7921,N,12144.3814,W,0.17,145.16,220514,,,A*7C
$GPVTG,145.16,T,,M,0.17,N,0.32,K,A*3D
$GPGGA,203921.000,3832.7921,N,12144.3813,W,1,8,1.03,29.6,M,-23.2,M,,*50
$GPRMC,203921.000,A,3832.7921,N,12144.3813,W,0.09,145.16,220514,,,A*75
$GPVTG,145.16,T,,M,0.09,N,0.17,K,A*35
$GPGGA,203922.000,3832.7921,N,12144.3813,W,1,8,1.03,29.6,M,-23.2,M,,*53
$GPRMC,203922.000,A,3832.7921,N,12144.3813,W,0.69,89.33,220514,,,A*46
$GPVTG,89.33,T,,M,0.69,N,1.27,K,A*07
$GPGGA,203923.000,3832.7905,N,12144.3811,W,1,8,1.03,29.5,M,-23.2,M,,*55
$GPGSA,A,3,05,03,13,08,28,10,19,07,,,,,1.34,1.03,0.86*00
$GPGSV,3,1,12,08,64,341,32,07,63,050,38,28,55,238,27,48,43,197,28*71
$GPGSV,3,2,12,13,35,146,38,19,33,065,35,03,27,051,39,05,21,285,29*70
$GPGSV,3,3,12,10,21,229,22,17,01,189,,23,,,26,26,,,29*7C
$GPRMC,203923.000,A,3832.7905,N,12144.3811,W,0.87,111.24,220514,,,A*75
$GPVTG,111.24,T,,M,0.87,N,1.61,K,A*33
$GPGGA,203924.000,3832.7901,N,12144.3815,W,1,8,1.03,29.3,M,-23.2,M,,*54
$GPGSA,A,3,05,03,13,08,28,10,19,07,,,,,1.34,1.03,0.86*00
$GPGSV,3,1,12,08,64,341,32,07,63,050,36,28,55,238,27,48,43,197,28*7F
$GPGSV,3,2,12,13,35,146,39,19,33,065,45,03,27,051,39,05,21,285,31*7F
$GPGSV,3,3,12,10,21,229,24,17,01,189,,23,,,26,26,,,28*7B
$GPRMC,203924.000,A,3832.7901,N,12144.3815,W,0.98,173.46,220514,,,A*7C
$GPVTG,173.46,T,,M,0.98,N,1.82,K,A*30
$GPGGA,203925.000,3832.7894,N,12144.3808,W,1,8,1.03,29.3,M,-23.2,M,,*54
$GPRMC,203925.000,A,3832.7894,N,12144.3808,W,1.12,165.97,220514,,,A*74
$GPVTG,165.97,T,,M,1.12,N,2.08,K,A*39
$GPGGA,203926.000,3832.7887,N,12144.3802,W,1,8,1.03,28.4,M,-23.2,M,,*59
$GPRMC,203926.000,A,3832.7887,N,12144.3802,W,1.76,166.28,220514,,,A*7A
$GPVTG,166.28,T,,M,1.76,N,3.26,K,A*31
$GPGGA,203927.000,3832.7881,N,12144.3799,W,1,8,1.03,28.9,M,-23.2,M,,*5E
$GPRMC,203927.000,A,3832.7881,N,12144.3799,W,2.25,185.90,220514,,,A*7B
$GPVTG,185.90,T,,M,2.25,N,4.17,K,A*3F
$GPGGA,203928.000,3832.7875,N,12144.3797,W,1,8,1.03,28.9,M,-23.2,M,,*54
$GPRMC,203928.000,A,3832.7875,N,12144.3797,W,1.85,166.64,220514,,,A*7E
$GPVTG,166.64,T,,M,1.85,N,3.42,K,A*37
$GPGGA,203929.000,3832.7869,N,12144.3795,W,1,8,1.03,29.7,M,-23.2,M,,*55
$GPGSA,A,3,05,03,13,08,28,10,19,07,,,,,1.34,1.03,0.86*00
$GPGSV,3,1,12,08,64,342,29,07,63,050,41,28,55,238,26,48,43,197,29*76
$GPGSV,3,2,12,13,35,146,37,19,33,065,44,03,27,051,40,05,21,285,29*77
$GPGSV,3,3,12,10,21,229,26,17,01,189,,23,,,26,26,,,28*79
$GPRMC,203929.000,A,3832.7869,N,12144.3795,W,1.79,164.06,220514,,,A*75
$GPVTG,164.06,T,,M,1.79,N,3.31,K,A*36
$GPGGA,203930.000,3832.7863,N,12144.3789,W,1,8,1.03,29.7,M,-23.2,M,,*5A
$GPGSA,A,3,05,03,13,08,28,10,19,07,,,,,1.34,1.03,0.86*00
